{
"type": "FeatureCollection",
                                                                                
"features": [
{ "type": "Feature", "properties": { "USERID": 13061, "LAYERCODE": 111996011, "LAYERNAME": "AEDステーション", "NAME": "しらかば保育園分園", "ADDRESS": "池田町１－１９－１８", "TEL": "046-835-5821", "FAX": null, "URL": null, "INFO": "AED:玄関ホールに1台設置　開設時間　平日7：00～19：00", "X_BLDD": 139.699218, "Y_BLDD": 35.252771, "VIEWFLG": 1 }, "geometry": { "type": "Point", "coordinates": [ 139.695999852822382, 35.256058453361447 ] } }
,
{ "type": "Feature", "properties": { "USERID": 13082, "LAYERCODE": 111996011, "LAYERNAME": "AEDステーション", "NAME": "水道料金課（１号館８階）", "ADDRESS": "小川町11番地", "TEL": null, "FAX": null, "URL": null, "INFO": null, "X_BLDD": 139.675158, "Y_BLDD": 35.27823, "VIEWFLG": 1 }, "geometry": { "type": "Point", "coordinates": [ 139.671942095968177, 35.281514958097638 ] } }
,
{ "type": "Feature", "properties": { "USERID": 12545, "LAYERCODE": 111996011, "LAYERNAME": "AEDステーション", "NAME": "湘南菱油（株）セルフ佐原SS", "ADDRESS": "横須賀市佐原１－９－１７", "TEL": null, "FAX": null, "URL": null, "INFO": null, "X_BLDD": 139.6833, "Y_BLDD": 35.2382, "VIEWFLG": 1 }, "geometry": { "type": "Point", "coordinates": [ 139.680082915969251, 35.241489148928004 ] } }
,
{ "type": "Feature", "properties": { "USERID": 12548, "LAYERCODE": 111996011, "LAYERNAME": "AEDステーション", "NAME": "湘南菱油（株）本社SS", "ADDRESS": "横須賀市森崎１－５－２４", "TEL": null, "FAX": null, "URL": null, "INFO": null, "X_BLDD": 139.68398, "Y_BLDD": 35.2466, "VIEWFLG": 1 }, "geometry": { "type": "Point", "coordinates": [ 139.680762974819515, 35.249888248068608 ] } }
,
{ "type": "Feature", "properties": { "USERID": 12546, "LAYERCODE": 111996011, "LAYERNAME": "AEDステーション", "NAME": "湘南菱油（株）武山SS", "ADDRESS": "横須賀市武４－３８－１", "TEL": null, "FAX": null, "URL": null, "INFO": null, "X_BLDD": 139.64587, "Y_BLDD": 35.21922, "VIEWFLG": 1 }, "geometry": { "type": "Point", "coordinates": [ 139.642655621109498, 35.222511508722242 ] } }
,
{ "type": "Feature", "properties": { "USERID": 12501, "LAYERCODE": 111996011, "LAYERNAME": "AEDステーション", "NAME": "京急追浜駅　", "ADDRESS": "追浜町3-3", "TEL": null, "FAX": null, "URL": null, "INFO": null, "X_BLDD": 139.62788, "Y_BLDD": 35.31287, "VIEWFLG": 1 }, "geometry": { "type": "Point", "coordinates": [ 139.624668297875814, 35.316151691712541 ] } }
,
{ "type": "Feature", "properties": { "USERID": 12520, "LAYERCODE": 111996011, "LAYERNAME": "AEDステーション", "NAME": "三浦藤沢信用金庫　中央駅前出張所", "ADDRESS": "横須賀市若松町２－５－９", "TEL": "046-824-1515", "FAX": null, "URL": null, "INFO": "AED：カウンターに1台設置　開設時間　平日9：00～15：00", "X_BLDD": 139.67371, "Y_BLDD": 35.27581, "VIEWFLG": 1 }, "geometry": { "type": "Point", "coordinates": [ 139.670494178068481, 35.279095228949949 ] } }
,
{ "type": "Feature", "properties": { "USERID": 13172, "LAYERCODE": 111996011, "LAYERNAME": "AEDステーション", "NAME": "株式会社　マリン・ワーク・ジャパン", "ADDRESS": "追浜東町3-54-1", "TEL": "046-869-0041", "FAX": null, "URL": null, "INFO": "AED：玄関ホールに1台設置。開設時間：平日9:00　～　17:30", "X_BLDD": 139.633934, "Y_BLDD": 35.3132, "VIEWFLG": 1 }, "geometry": { "type": "Point", "coordinates": [ 139.630721823473834, 35.316481602202302 ] } }
,
{ "type": "Feature", "properties": { "USERID": 12565, "LAYERCODE": 111996011, "LAYERNAME": "AEDステーション", "NAME": "フェリー興業（株）横須賀PA下り店", "ADDRESS": "横須賀市平作４－８４７", "TEL": "046-850-1377", "FAX": null, "URL": null, "INFO": "AED自動販売機前に1台設置　　開設時間　6：00～19：00", "X_BLDD": 139.64681, "Y_BLDD": 35.24716, "VIEWFLG": 1 }, "geometry": { "type": "Point", "coordinates": [ 139.643595921476702, 35.25044852365717 ] } }
,
{ "type": "Feature", "properties": { "USERID": 12544, "LAYERCODE": 111996011, "LAYERNAME": "AEDステーション", "NAME": "（株）　オートサービス湘南平成町SS", "ADDRESS": "横須賀市安浦町２－３－５", "TEL": "046-822-0756", "FAX": null, "URL": null, "INFO": "AED販売室に1台設置　開設時間　AM3：00～翌AM2：00", "X_BLDD": 139.68183, "Y_BLDD": 35.27059, "VIEWFLG": 1 }, "geometry": { "type": "Point", "coordinates": [ 139.678613466176415, 35.273875711955981 ] } }
,
{ "type": "Feature", "properties": { "USERID": 13189, "LAYERCODE": 111996011, "LAYERNAME": "AEDステーション", "NAME": "はなまる保育園", "ADDRESS": "久里浜2-1-2", "TEL": "046-835-1007", "FAX": null, "URL": null, "INFO": "AED：階段（1～2階）に1台設置。開設時間：平日7:00～19:00　土曜8:00～18:00", "X_BLDD": 139.704873, "Y_BLDD": 35.226392, "VIEWFLG": 1 }, "geometry": { "type": "Point", "coordinates": [ 139.701654052066033, 35.229682211726484 ] } }
,
{ "type": "Feature", "properties": { "USERID": 12341, "LAYERCODE": 111996011, "LAYERNAME": "AEDステーション", "NAME": "不入斗公園", "ADDRESS": "不入斗町1-2", "TEL": "046-823-9360", "FAX": null, "URL": "http:\/\/www.city.yokosuka.kanagawa.jp\/4130\/sisetu\/fc00000043.html", "INFO": "AED：管理事務所内に1台設置。開設時間：5:30～21:00", "X_BLDD": 139.66763, "Y_BLDD": 35.2647, "VIEWFLG": 1 }, "geometry": { "type": "Point", "coordinates": [ 139.664414510068809, 35.267986467317144 ] } }
,
{ "type": "Feature", "properties": { "USERID": 12910, "LAYERCODE": 111996011, "LAYERNAME": "AEDステーション", "NAME": "高橋歯科医院", "ADDRESS": "本町2-16-5", "TEL": "046-822-2182", "FAX": null, "URL": null, "INFO": "AED受付に1台設置　　開設時間　平日9：00～18：30（木曜除く）　　　　　　　　　土曜9：00～12：00", "X_BLDD": 139.66845, "Y_BLDD": 35.27851, "VIEWFLG": 1 }, "geometry": { "type": "Point", "coordinates": [ 139.66523463010941, 35.28179498863048 ] } }
,
{ "type": "Feature", "properties": { "USERID": 12342, "LAYERCODE": 111996011, "LAYERNAME": "AEDステーション", "NAME": "はまゆう公園", "ADDRESS": "不入斗町4-25", "TEL": "046-826-2874", "FAX": null, "URL": "http:\/\/www.city.yokosuka.kanagawa.jp\/4130\/sisetu\/fc00000047.html", "INFO": "AED：管理事務所内に1台設置。開設時間：4～9月　8:30～19:00 \/ 10～3月　8:30～17:00", "X_BLDD": 139.66656, "Y_BLDD": 35.27024, "VIEWFLG": 1 }, "geometry": { "type": "Point", "coordinates": [ 139.663344668855729, 35.273525886734767 ] } }
,
{ "type": "Feature", "properties": { "USERID": 12523, "LAYERCODE": 111996011, "LAYERNAME": "AEDステーション", "NAME": "三浦藤沢信用金庫　田浦出張所", "ADDRESS": "横須賀市船越町５－１－８", "TEL": "046-851-1515", "FAX": null, "URL": null, "INFO": "AEDカウンターに1台設置　開設時間　平日9：00～15：00", "X_BLDD": 139.62967, "Y_BLDD": 35.29704, "VIEWFLG": 1 }, "geometry": { "type": "Point", "coordinates": [ 139.626457944732948, 35.300323362808868 ] } }
,
{ "type": "Feature", "properties": { "USERID": 12596, "LAYERCODE": 111996011, "LAYERNAME": "AEDステーション", "NAME": "学校法人　神奈川歯科大学", "ADDRESS": "稲岡町82", "TEL": "046-822-8810", "FAX": null, "URL": null, "INFO": "AED神奈川歯科大学附属病院の1階～6階各フロアーに設置　開設時間　9：00～17：00（５階病棟は２４時間）", "X_BLDD": 139.67284, "Y_BLDD": 35.28104, "VIEWFLG": 1 }, "geometry": { "type": "Point", "coordinates": [ 139.669624316851468, 35.284324679580401 ] } }
,
{ "type": "Feature", "properties": { "USERID": 12522, "LAYERCODE": 111996011, "LAYERNAME": "AEDステーション", "NAME": "三浦藤沢信用金庫　追浜支店", "ADDRESS": "横須賀市追浜本町１－２８", "TEL": "046-866-1515", "FAX": null, "URL": null, "INFO": "AED職員通用口脇に1台設置　開設時間　平日9：00～15：00", "X_BLDD": 139.62866, "Y_BLDD": 35.31323, "VIEWFLG": 1 }, "geometry": { "type": "Point", "coordinates": [ 139.625448240994103, 35.31651164634112 ] } }
,
{ "type": "Feature", "properties": { "USERID": 12903, "LAYERCODE": 111996011, "LAYERNAME": "AEDステーション", "NAME": "ゴールドジム　横須賀神奈川", "ADDRESS": "若松町2-4　横須賀中央駅前ビル５階", "TEL": "046-828-1818", "FAX": null, "URL": null, "INFO": "AEDフロントに1台設置　", "X_BLDD": 139.67313, "Y_BLDD": 35.2764, "VIEWFLG": 1 }, "geometry": { "type": "Point", "coordinates": [ 139.66991423182489, 35.279685171312877 ] } }
,
{ "type": "Feature", "properties": { "USERID": 12506, "LAYERCODE": 111996011, "LAYERNAME": "AEDステーション", "NAME": "京急横須賀中央駅", "ADDRESS": "横須賀市若松町2-25", "TEL": "046-822-1618", "FAX": null, "URL": null, "INFO": "AED 東口（Yデッキ側）改札内に1台設置　開設時間　平日5：00～0：50　土日5：00～0：30", "X_BLDD": 139.67364, "Y_BLDD": 35.27506, "VIEWFLG": 1 }, "geometry": { "type": "Point", "coordinates": [ 139.67042417356447, 35.278345309482908 ] } }
,
{ "type": "Feature", "properties": { "USERID": 12929, "LAYERCODE": 111996011, "LAYERNAME": "AEDステーション", "NAME": "公郷老人憩いの家", "ADDRESS": "公郷町6－1", "TEL": null, "FAX": null, "URL": null, "INFO": null, "X_BLDD": 139.67729, "Y_BLDD": 35.256592, "VIEWFLG": 1 }, "geometry": { "type": "Point", "coordinates": [ 139.674073637660314, 35.259879244029122 ] } }
,
{ "type": "Feature", "properties": { "USERID": 12328, "LAYERCODE": 111996011, "LAYERNAME": "AEDステーション", "NAME": "秋谷老人福祉センター", "ADDRESS": "秋谷3-6-25", "TEL": null, "FAX": null, "URL": "http:\/\/www.city.yokosuka.kanagawa.jp\/3060\/sisetu\/fc00000040.html", "INFO": null, "X_BLDD": 139.60096, "Y_BLDD": 35.23809, "VIEWFLG": 1 }, "geometry": { "type": "Point", "coordinates": [ 139.597749426437986, 35.241379903720819 ] } }
,
{ "type": "Feature", "properties": { "USERID": 12327, "LAYERCODE": 111996011, "LAYERNAME": "AEDステーション", "NAME": "北下浦老人福祉センター", "ADDRESS": "長沢2-6-40", "TEL": null, "FAX": null, "URL": "http:\/\/www.city.yokosuka.kanagawa.jp\/3060\/sisetu\/fc00000044.html", "INFO": null, "X_BLDD": 139.68257, "Y_BLDD": 35.20118, "VIEWFLG": 1 }, "geometry": { "type": "Point", "coordinates": [ 139.679352476847782, 35.204473098313947 ] } }
,
{ "type": "Feature", "properties": { "USERID": 13166, "LAYERCODE": 111996011, "LAYERNAME": "AEDステーション", "NAME": "長井コミュニティセンター", "ADDRESS": "長井5－16－5", "TEL": "046-856-3123", "FAX": null, "URL": null, "INFO": "AED：事務室内に1台設置。開設時間：8:30～21:00", "X_BLDD": 139.61478, "Y_BLDD": 35.20093, "VIEWFLG": 1 }, "geometry": { "type": "Point", "coordinates": [ 139.611571834255699, 35.204223738323925 ] } }
,
{ "type": "Feature", "properties": { "USERID": 13066, "LAYERCODE": 111996011, "LAYERNAME": "AEDステーション", "NAME": "カーブス衣笠栄町", "ADDRESS": "衣笠栄町1-13　シルパティオ３階", "TEL": "046-852-0305", "FAX": null, "URL": null, "INFO": "AED:カウンター脇に1台設置　開設時間　9：30～19：30", "X_BLDD": 139.666299, "Y_BLDD": 35.253657, "VIEWFLG": 1 }, "geometry": { "type": "Point", "coordinates": [ 139.663083467390521, 35.256944655763277 ] } }
,
{ "type": "Feature", "properties": { "USERID": 12320, "LAYERCODE": 111996011, "LAYERNAME": "AEDステーション", "NAME": "本町老人福祉センター（総合福祉会館3階）", "ADDRESS": "本町2-1", "TEL": null, "FAX": null, "URL": "http:\/\/www.city.yokosuka.kanagawa.jp\/3010\/sisetu\/fc00000079.html", "INFO": null, "X_BLDD": 139.66785, "Y_BLDD": 35.2796, "VIEWFLG": 1 }, "geometry": { "type": "Point", "coordinates": [ 139.664634692138918, 35.282884877898077 ] } }
,
{ "type": "Feature", "properties": { "USERID": 12536, "LAYERCODE": 111996011, "LAYERNAME": "AEDステーション", "NAME": "湘南菱油（株）セルフ長坂SS", "ADDRESS": "横須賀市長坂３－９－１１", "TEL": "046-857-3022", "FAX": null, "URL": null, "INFO": "AED：サービスルームに1台設置　開設時間　24時間", "X_BLDD": 139.62924, "Y_BLDD": 35.22175, "VIEWFLG": 1 }, "geometry": { "type": "Point", "coordinates": [ 139.626026970310335, 35.225041389456976 ] } }
,
{ "type": "Feature", "properties": { "USERID": 12980, "LAYERCODE": 111996011, "LAYERNAME": "AEDステーション", "NAME": "鈴木クリニック", "ADDRESS": "若松町3-10", "TEL": "046-822-0978", "FAX": null, "URL": null, "INFO": "AED処置室に1台設置　開設時間　（月～木）9：00～18：00　　　　　　　　（金・土）9：00～12：00", "X_BLDD": 139.675387, "Y_BLDD": 35.275679, "VIEWFLG": 1 }, "geometry": { "type": "Point", "coordinates": [ 139.672171043718947, 35.278964227812295 ] } }
,
{ "type": "Feature", "properties": { "USERID": 12532, "LAYERCODE": 111996011, "LAYERNAME": "AEDステーション", "NAME": "三浦藤沢信用金庫　安浦支店", "ADDRESS": "横須賀市安浦町３－２５", "TEL": null, "FAX": null, "URL": null, "INFO": null, "X_BLDD": 139.68352, "Y_BLDD": 35.2664, "VIEWFLG": 1 }, "geometry": { "type": "Point", "coordinates": [ 139.680303276456613, 35.269686143089025 ] } }
,
{ "type": "Feature", "properties": { "USERID": 12993, "LAYERCODE": 111996011, "LAYERNAME": "AEDステーション", "NAME": "きくち消化器・内科クリニック", "ADDRESS": "衣笠栄町2-66-3　（KMﾋﾞﾙ2･3階）", "TEL": "046-850-3285", "FAX": null, "URL": null, "INFO": "AED 診察室に1台設置　開設時間　平日（火曜を除く）9：30～18：30（12：30～15：00を除く）　　　　　　　火・土曜9：30～12：30", "X_BLDD": 139.66408, "Y_BLDD": 35.254305, "VIEWFLG": 1 }, "geometry": { "type": "Point", "coordinates": [ 139.660864651536002, 35.257592606733667 ] } }
,
{ "type": "Feature", "properties": { "USERID": 12326, "LAYERCODE": 111996011, "LAYERNAME": "AEDステーション", "NAME": "鴨居老人福祉センター", "ADDRESS": "鴨居3-11-11", "TEL": null, "FAX": null, "URL": "http:\/\/www.city.yokosuka.kanagawa.jp\/3060\/sisetu\/fc00000046.html", "INFO": null, "X_BLDD": 139.7387, "Y_BLDD": 35.24683, "VIEWFLG": 1 }, "geometry": { "type": "Point", "coordinates": [ 139.735478652376884, 35.250117729986592 ] } }
,
{ "type": "Feature", "properties": { "USERID": 12325, "LAYERCODE": 111996011, "LAYERNAME": "AEDステーション", "NAME": "池上老人福祉センター", "ADDRESS": "池上4-6-1", "TEL": null, "FAX": null, "URL": "http:\/\/www.city.yokosuka.kanagawa.jp\/3060\/sisetu\/fc00000050.html", "INFO": null, "X_BLDD": 139.64846, "Y_BLDD": 35.25958, "VIEWFLG": 1 }, "geometry": { "type": "Point", "coordinates": [ 139.645245957397634, 35.262867185512079 ] } }
,
{ "type": "Feature", "properties": { "USERID": 12323, "LAYERCODE": 111996011, "LAYERNAME": "AEDステーション", "NAME": "船越老人福祉センター", "ADDRESS": "船越町8-2-5", "TEL": null, "FAX": null, "URL": "http:\/\/www.city.yokosuka.kanagawa.jp\/3060\/sisetu\/fc00000038.html", "INFO": null, "X_BLDD": 139.63327, "Y_BLDD": 35.30166, "VIEWFLG": 1 }, "geometry": { "type": "Point", "coordinates": [ 139.63005772177226, 35.304942838082859 ] } }
,
{ "type": "Feature", "properties": { "USERID": 12343, "LAYERCODE": 111996011, "LAYERNAME": "AEDステーション", "NAME": "衣笠公園", "ADDRESS": "平作1-2712-1", "TEL": "046-851-0947", "FAX": null, "URL": "http:\/\/www.city.yokosuka.kanagawa.jp\/4130\/sisetu\/fc00000037.html", "INFO": "AED：管理事務所内に1台設置。開設時間：4～9月　8:30～19:00 \/ 10～3月　8:30～17:00", "X_BLDD": 139.66057, "Y_BLDD": 35.25426, "VIEWFLG": 1 }, "geometry": { "type": "Point", "coordinates": [ 139.657354928485148, 35.257547643168053 ] } }
,
{ "type": "Feature", "properties": { "USERID": 12590, "LAYERCODE": 111996011, "LAYERNAME": "AEDステーション", "NAME": "私立緑ヶ丘女子中学校・高等学校", "ADDRESS": "緑が丘39", "TEL": "046-822-1651", "FAX": null, "URL": null, "INFO": "AED1階正面玄関に1台設置　開設時間　8：20～16：20", "X_BLDD": 139.66721, "Y_BLDD": 35.27742, "VIEWFLG": 1 }, "geometry": { "type": "Point", "coordinates": [ 139.663994713569735, 35.280705115920284 ] } }
,
{ "type": "Feature", "properties": { "USERID": 13190, "LAYERCODE": 111996011, "LAYERNAME": "AEDステーション", "NAME": "久里浜幼稚園", "ADDRESS": "久里浜2-9-1", "TEL": "046-835-6501", "FAX": null, "URL": null, "INFO": "AED：　開設時間", "X_BLDD": 139.702716, "Y_BLDD": 35.224865, "VIEWFLG": 1 }, "geometry": { "type": "Point", "coordinates": [ 139.699497202094761, 35.22815539382816 ] } }
,
{ "type": "Feature", "properties": { "USERID": 12922, "LAYERCODE": 111996011, "LAYERNAME": "AEDステーション", "NAME": "とづか内科クリニック", "ADDRESS": "大津町1－12－22", "TEL": "046-830-3075", "FAX": null, "URL": null, "INFO": "AED：処置室に1台設置　開設時間　平日8:40～19:00（12:30～15:10を除く）　　　　　　　土曜13:40～16:00", "X_BLDD": 139.69956, "Y_BLDD": 35.25782, "VIEWFLG": 1 }, "geometry": { "type": "Point", "coordinates": [ 139.696341893435232, 35.261106912506001 ] } }
,
{ "type": "Feature", "properties": { "USERID": 12946, "LAYERCODE": 111996011, "LAYERNAME": "AEDステーション", "NAME": "安浦コミュニティーセンター", "ADDRESS": "安浦町２－33", "TEL": null, "FAX": null, "URL": null, "INFO": "ＡＥＤ事務室内に1台設置。　開設時間　8：30～21：00", "X_BLDD": 139.682685, "Y_BLDD": 35.268794, "VIEWFLG": 1 }, "geometry": { "type": "Point", "coordinates": [ 139.679468374530643, 35.272079895582792 ] } }
,
{ "type": "Feature", "properties": { "USERID": 12566, "LAYERCODE": 111996011, "LAYERNAME": "AEDステーション", "NAME": "（有）不動薬局", "ADDRESS": "横須賀市林２－１－３９", "TEL": "046-856-2424", "FAX": null, "URL": null, "INFO": "AED:１台設置　開設時間9:00～20:00", "X_BLDD": 139.64335, "Y_BLDD": 35.21687, "VIEWFLG": 1 }, "geometry": { "type": "Point", "coordinates": [ 139.640135788866019, 35.220161781839039 ] } }
,
{ "type": "Feature", "properties": { "USERID": 12620, "LAYERCODE": 111996011, "LAYERNAME": "AEDステーション", "NAME": "パチンコ　ＺＡＰ舟倉店", "ADDRESS": "舟倉1-1-23", "TEL": "046-835-9199", "FAX": null, "URL": null, "INFO": "AED1台設置　開設時間　9:00～23:00", "X_BLDD": 139.69901, "Y_BLDD": 35.23701, "VIEWFLG": 1 }, "geometry": { "type": "Point", "coordinates": [ 139.695791657986035, 35.240299133876668 ] } }
,
{ "type": "Feature", "properties": { "USERID": 12947, "LAYERCODE": 111996011, "LAYERNAME": "AEDステーション", "NAME": "三春コミュニティーセンター", "ADDRESS": "三春町２－12", "TEL": null, "FAX": null, "URL": null, "INFO": "AED事務室内に1台設置。　開設時間　8：30～21：00", "X_BLDD": 139.688658, "Y_BLDD": 35.26376, "VIEWFLG": 1 }, "geometry": { "type": "Point", "coordinates": [ 139.685440834883764, 35.267046378030876 ] } }
,
{ "type": "Feature", "properties": { "USERID": 12511, "LAYERCODE": 111996011, "LAYERNAME": "AEDステーション", "NAME": "京急浦賀駅", "ADDRESS": "横須賀市浦賀1-1-1", "TEL": null, "FAX": null, "URL": null, "INFO": null, "X_BLDD": 139.71821, "Y_BLDD": 35.24799, "VIEWFLG": 1 }, "geometry": { "type": "Point", "coordinates": [ 139.714990287436052, 35.251277791282753 ] } }
,
{ "type": "Feature", "properties": { "USERID": 12479, "LAYERCODE": 111996011, "LAYERNAME": "AEDステーション", "NAME": "横須賀市立市民病院", "ADDRESS": "長坂1-3-2", "TEL": null, "FAX": null, "URL": "http:\/\/www.city.yokosuka.kanagawa.jp\/3120\/sisetu\/fc00000321.html", "INFO": "① 救急受付②　リハビリ室受付　③ 救急外来　④　西６階病棟　⑤　健康管理センター⑥ 内科外来　24時間対応（①③④）　平日8：30～17：30（②⑤⑥）　土曜8：30～12：30（②⑥）", "X_BLDD": 139.6299, "Y_BLDD": 35.21953, "VIEWFLG": 1 }, "geometry": { "type": "Point", "coordinates": [ 139.626686888319568, 35.22282162001131 ] } }
,
{ "type": "Feature", "properties": { "USERID": 12306, "LAYERCODE": 111996011, "LAYERNAME": "AEDステーション", "NAME": "追浜行政センター", "ADDRESS": "夏島町9", "TEL": null, "FAX": null, "URL": "http:\/\/www.city.yokosuka.kanagawa.jp\/2480\/sisetu\/fc00000097.html", "INFO": "AED１階警備室内に１台設置　開設時間　8：30～17：00", "X_BLDD": 139.63517, "Y_BLDD": 35.31503, "VIEWFLG": 1 }, "geometry": { "type": "Point", "coordinates": [ 139.631957750168795, 35.318311396065553 ] } }
,
{ "type": "Feature", "properties": { "USERID": 13194, "LAYERCODE": 111996011, "LAYERNAME": "AEDステーション", "NAME": "アルファ　デンタル　クリニック", "ADDRESS": "横須賀市衣笠栄町１－７０", "TEL": "046-853-1180", "FAX": null, "URL": null, "INFO": "AED：受付に1台設置。開設時間：10:00～18:30（月～金）10:00～13:30（土曜）", "X_BLDD": 139.665614, "Y_BLDD": 35.254065, "VIEWFLG": 1 }, "geometry": { "type": "Point", "coordinates": [ 139.662398527021963, 35.257352618473348 ] } }
,
{ "type": "Feature", "properties": { "USERID": 13199, "LAYERCODE": 111996011, "LAYERNAME": "AEDステーション", "NAME": "杉山歯科医院", "ADDRESS": "馬堀町2-2-31", "TEL": "844-3223", "FAX": null, "URL": null, "INFO": "AED：診療室に1台設置。開設時間：9:30～19:00（日曜除く）9:30～17:00（祝日）", "X_BLDD": 139.70788, "Y_BLDD": 35.256867, "VIEWFLG": 1 }, "geometry": { "type": "Point", "coordinates": [ 139.70466122295332, 35.260153939019645 ] } }
,
{ "type": "Feature", "properties": { "USERID": 12311, "LAYERCODE": 111996011, "LAYERNAME": "AEDステーション", "NAME": "浦賀行政センター", "ADDRESS": "浦賀5-1-2", "TEL": null, "FAX": null, "URL": "http:\/\/www.city.yokosuka.kanagawa.jp\/2490\/sisetu\/fc00000086.html", "INFO": "AED１階警備室内に１台設置　開設時間　8：30～17：00", "X_BLDD": 139.71688, "Y_BLDD": 35.24428, "VIEWFLG": 1 }, "geometry": { "type": "Point", "coordinates": [ 139.713660342833521, 35.247568198374552 ] } }
,
{ "type": "Feature", "properties": { "USERID": 12309, "LAYERCODE": 111996011, "LAYERNAME": "AEDステーション", "NAME": "衣笠行政センター", "ADDRESS": "公郷町2-11", "TEL": null, "FAX": null, "URL": "http:\/\/www.city.yokosuka.kanagawa.jp\/2486\/sisetu\/fc00000089.html", "INFO": "AED１階事務室内に１台設置　開設時間　8：30～17：00", "X_BLDD": 139.66939, "Y_BLDD": 35.25278, "VIEWFLG": 1 }, "geometry": { "type": "Point", "coordinates": [ 139.666174211228935, 35.256067721324563 ] } }
,
{ "type": "Feature", "properties": { "USERID": 12478, "LAYERCODE": 111996011, "LAYERNAME": "AEDステーション", "NAME": "横須賀市立うわまち病院", "ADDRESS": "上町2-36", "TEL": null, "FAX": null, "URL": "http:\/\/www.city.yokosuka.kanagawa.jp\/3120\/sisetu\/fc00000322.html", "INFO": "①　外来1階　②　外来2階　③　リハビリ棟　④　ドクターカー", "X_BLDD": 139.67143, "Y_BLDD": 35.2688, "VIEWFLG": 1 }, "geometry": { "type": "Point", "coordinates": [ 139.668214264502069, 35.272085996296575 ] } }
,
{ "type": "Feature", "properties": { "USERID": 12472, "LAYERCODE": 111996011, "LAYERNAME": "AEDステーション", "NAME": "自然人文博物館", "ADDRESS": "深田台95", "TEL": null, "FAX": null, "URL": "http:\/\/www.city.yokosuka.kanagawa.jp\/8161\/sisetu\/fc00000381.html", "INFO": "AED:事務室に1台設置。", "X_BLDD": 139.6771, "Y_BLDD": 35.27131, "VIEWFLG": 1 }, "geometry": { "type": "Point", "coordinates": [ 139.673883849792929, 35.274595677841411 ] } }
,
{ "type": "Feature", "properties": { "USERID": 13119, "LAYERCODE": 111996011, "LAYERNAME": "AEDステーション", "NAME": "三浦藤沢信用金庫　本部", "ADDRESS": "小川町７", "TEL": "046-826-1515", "FAX": null, "URL": null, "INFO": "AED入り口に1台設置　開設時間　平日9：00～17：00", "X_BLDD": 139.673934, "Y_BLDD": 35.278896, "VIEWFLG": 1 }, "geometry": { "type": "Point", "coordinates": [ 139.670718201659753, 35.282180898157677 ] } }
,
{ "type": "Feature", "properties": { "USERID": 12945, "LAYERCODE": 111996011, "LAYERNAME": "AEDステーション", "NAME": "坂本コミュニティーセンター", "ADDRESS": "坂本町２－26", "TEL": null, "FAX": null, "URL": null, "INFO": "ＡＥＤ事務室内に1台設置。　開設時間8：30～21：00", "X_BLDD": 139.656403, "Y_BLDD": 35.272264, "VIEWFLG": 1 }, "geometry": { "type": "Point", "coordinates": [ 139.653188499112844, 35.275549762537537 ] } }
,
{ "type": "Feature", "properties": { "USERID": 12551, "LAYERCODE": 111996011, "LAYERNAME": "AEDステーション", "NAME": "住友重機械工業（株）横須賀製造所", "ADDRESS": "横須賀市夏島町１９", "TEL": "046-869-1622", "FAX": null, "URL": null, "INFO": "AED：5台設置　開設時間　平日7：30～17：00", "X_BLDD": 139.65794, "Y_BLDD": 35.32365, "VIEWFLG": 1 }, "geometry": { "type": "Point", "coordinates": [ 139.654726064617279, 35.326930273094916 ] } }
,
{ "type": "Feature", "properties": { "USERID": 12475, "LAYERCODE": 111996011, "LAYERNAME": "AEDステーション", "NAME": "ヴェルニー記念館", "ADDRESS": "東逸見町1-1", "TEL": null, "FAX": null, "URL": "http:\/\/www.city.yokosuka.kanagawa.jp\/8161\/sisetu\/fc00000570.html", "INFO": "AED:事務室に1台設置", "X_BLDD": 139.65899, "Y_BLDD": 35.28146, "VIEWFLG": 1 }, "geometry": { "type": "Point", "coordinates": [ 139.655775417618258, 35.284744759437466 ] } }
,
{ "type": "Feature", "properties": { "USERID": 12975, "LAYERCODE": 111996011, "LAYERNAME": "AEDステーション", "NAME": "月山内科クリニック", "ADDRESS": "追浜本町1-23-6", "TEL": "046-865-0018", "FAX": null, "URL": null, "INFO": "AED:処置室に1台設置　開設時間　平日（木曜除く）8：30～18：30（11：30～14：30除く）　　　　　　　土曜8：30～16：30（11：30～13：30除く）", "X_BLDD": 139.62936, "Y_BLDD": 35.313742, "VIEWFLG": 1 }, "geometry": { "type": "Point", "coordinates": [ 139.626148192470538, 35.317023585487163 ] } }
,
{ "type": "Feature", "properties": { "USERID": 13013, "LAYERCODE": 111996011, "LAYERNAME": "AEDステーション", "NAME": "めぐみケアクリニック", "ADDRESS": "久里浜1-11-7", "TEL": "046-837-3341", "FAX": null, "URL": null, "INFO": "AED：2階処置室に1台設置　開設時間　8：30～18：30", "X_BLDD": 139.70233, "Y_BLDD": 35.228054, "VIEWFLG": 1 }, "geometry": { "type": "Point", "coordinates": [ 139.69911227531756, 35.231344057694287 ] } }
,
{ "type": "Feature", "properties": { "USERID": 12542, "LAYERCODE": 111996011, "LAYERNAME": "AEDステーション", "NAME": "湘南菱油（株）セルフ田浦SS", "ADDRESS": "横須賀市田浦町２－８２", "TEL": null, "FAX": null, "URL": null, "INFO": null, "X_BLDD": 139.63681, "Y_BLDD": 35.28958, "VIEWFLG": 1 }, "geometry": { "type": "Point", "coordinates": [ 139.633597280276177, 35.292864093660079 ] } }
,
{ "type": "Feature", "properties": { "USERID": 12312, "LAYERCODE": 111996011, "LAYERNAME": "AEDステーション", "NAME": "久里浜行政センター", "ADDRESS": "久里浜6-14-2", "TEL": null, "FAX": null, "URL": "http:\/\/www.city.yokosuka.kanagawa.jp\/2492\/sisetu\/fc00000085.html", "INFO": "AED１階警備室内に１台設置　開設時間　8：30～17：00", "X_BLDD": 139.70912, "Y_BLDD": 35.22347, "VIEWFLG": 1 }, "geometry": { "type": "Point", "coordinates": [ 139.705900677126948, 35.226760484524227 ] } }
,
{ "type": "Feature", "properties": { "USERID": 12473, "LAYERCODE": 111996011, "LAYERNAME": "AEDステーション", "NAME": "馬堀自然教育園", "ADDRESS": "馬堀町4-10-3", "TEL": null, "FAX": null, "URL": "http:\/\/www.city.yokosuka.kanagawa.jp\/8161\/sisetu\/fc00000383.html", "INFO": "AED:事務室に1台設置", "X_BLDD": 139.72038, "Y_BLDD": 35.2539, "VIEWFLG": 1 }, "geometry": { "type": "Point", "coordinates": [ 139.717160195116236, 35.257187142325698 ] } }
,
{ "type": "Feature", "properties": { "USERID": 12474, "LAYERCODE": 111996011, "LAYERNAME": "AEDステーション", "NAME": "天神島臨海自然教育園", "ADDRESS": "佐島3-7-2", "TEL": null, "FAX": null, "URL": "http:\/\/www.city.yokosuka.kanagawa.jp\/8161\/sisetu\/fc00000399.html", "INFO": "AED:管理棟に1台設置", "X_BLDD": 139.60578, "Y_BLDD": 35.21855, "VIEWFLG": 1 }, "geometry": { "type": "Point", "coordinates": [ 139.602568783054267, 35.221841942384451 ] } }
,
{ "type": "Feature", "properties": { "USERID": 12508, "LAYERCODE": 111996011, "LAYERNAME": "AEDステーション", "NAME": "京急堀ノ内駅", "ADDRESS": "横須賀市三春町3-45", "TEL": "046-822-1653", "FAX": null, "URL": null, "INFO": "AED自動改札機横に1台設置　開設時間　4：56～翌0：54", "X_BLDD": 139.69053, "Y_BLDD": 35.25998, "VIEWFLG": 1 }, "geometry": { "type": "Point", "coordinates": [ 139.687312636254205, 35.263266763810954 ] } }
,
{ "type": "Feature", "properties": { "USERID": 12586, "LAYERCODE": 111996011, "LAYERNAME": "AEDステーション", "NAME": "神奈川県立保健福祉大学", "ADDRESS": "横須賀市平成町１－１０－１", "TEL": null, "FAX": null, "URL": null, "INFO": null, "X_BLDD": 139.684, "Y_BLDD": 35.27082, "VIEWFLG": 1 }, "geometry": { "type": "Point", "coordinates": [ 139.680783297688833, 35.274105667915627 ] } }
,
{ "type": "Feature", "properties": { "USERID": 12572, "LAYERCODE": 111996011, "LAYERNAME": "AEDステーション", "NAME": "医療法人社団慶明会　原歯科医院", "ADDRESS": "横須賀市根岸町３－１－５ＣＩマンション", "TEL": null, "FAX": null, "URL": null, "INFO": null, "X_BLDD": 139.68816, "Y_BLDD": 35.24931, "VIEWFLG": 1 }, "geometry": { "type": "Point", "coordinates": [ 139.684942680662175, 35.252597921711462 ] } }
,
{ "type": "Feature", "properties": { "USERID": 13016, "LAYERCODE": 111996011, "LAYERNAME": "AEDステーション", "NAME": "湘南長沢医院", "ADDRESS": "グリーンハイツ3-8", "TEL": "046-849-4114", "FAX": null, "URL": null, "INFO": "AED：診察室に1台設置　開設時間　月～土（水曜除く)8：30～19：00　　　　　　　日曜8：30～12：00", "X_BLDD": 139.67658, "Y_BLDD": 35.203177, "VIEWFLG": 1 }, "geometry": { "type": "Point", "coordinates": [ 139.673362977282125, 35.206469939839209 ] } }
,
{ "type": "Feature", "properties": { "USERID": 13053, "LAYERCODE": 111996011, "LAYERNAME": "AEDステーション", "NAME": "カーフェリーかなや丸（東京湾フェリー）", "ADDRESS": "久里浜８丁目", "TEL": "046-835-8855", "FAX": null, "URL": null, "INFO": "AED:客室内に1台設置　開設時間　6：00～20：00", "X_BLDD": 139.718736, "Y_BLDD": 35.217266, "VIEWFLG": 1 }, "geometry": { "type": "Point", "coordinates": [ 139.715515833737982, 35.220557058247955 ] } }
,
{ "type": "Feature", "properties": { "USERID": 13067, "LAYERCODE": 111996011, "LAYERNAME": "AEDステーション", "NAME": "カーブス横須賀中央", "ADDRESS": "大滝町２-１２ヨコスカタワー５階", "TEL": "046-825-1911", "FAX": null, "URL": null, "INFO": "AED:ロッカー付近に1台設置　開設時間　9：30～19：30", "X_BLDD": 139.6737, "Y_BLDD": 35.27784, "VIEWFLG": 1 }, "geometry": { "type": "Point", "coordinates": [ 139.670487205791801, 35.281125012741093 ] } }
,
{ "type": "Feature", "properties": { "USERID": 13019, "LAYERCODE": 111996011, "LAYERNAME": "AEDステーション", "NAME": "藤田整形外科", "ADDRESS": "野比1-39-15", "TEL": "046-848-6551", "FAX": null, "URL": null, "INFO": "AED：1台設置　開設時間　（月・火・水・金）9：00～18：00（12：00～15：00を除く）　　　　　　　土曜　9：00～12：00", "X_BLDD": 139.69039, "Y_BLDD": 35.212001, "VIEWFLG": 1 }, "geometry": { "type": "Point", "coordinates": [ 139.687169004130084, 35.215292875211979 ] } }
,
{ "type": "Feature", "properties": { "USERID": 12581, "LAYERCODE": 111996011, "LAYERNAME": "AEDステーション", "NAME": "スウィングスタジアム横須賀", "ADDRESS": "横須賀市平成町２－１４－１３", "TEL": null, "FAX": null, "URL": null, "INFO": null, "X_BLDD": 139.68581, "Y_BLDD": 35.27109, "VIEWFLG": 1 }, "geometry": { "type": "Point", "coordinates": [ 139.682593158201485, 35.274375622856112 ] } }
,
{ "type": "Feature", "properties": { "USERID": 12376, "LAYERCODE": 111996011, "LAYERNAME": "AEDステーション", "NAME": "北体育会館", "ADDRESS": "夏島町2", "TEL": "046-865-9333", "FAX": null, "URL": "http:\/\/www.city.yokosuka.kanagawa.jp\/8340\/sisetu\/fc00000394.html", "INFO": "ＡＥＤ：1階ロビーに1台設置。9：00～21：00（休館日を除く）※温水プールは9：30～21：00", "X_BLDD": 139.63889, "Y_BLDD": 35.31439, "VIEWFLG": 1 }, "geometry": { "type": "Point", "coordinates": [ 139.635677447416612, 35.317671430891473 ] } }
,
{ "type": "Feature", "properties": { "USERID": 13022, "LAYERCODE": 111996011, "LAYERNAME": "AEDステーション", "NAME": "今井ｳｲﾒﾝｽﾞｸﾘﾆｯｸ", "ADDRESS": "太田和1-1-8", "TEL": "046-855-0714", "FAX": null, "URL": null, "INFO": "AED：受付に1台設置　開設時間　（月・水・金）9：00～18：00　　　　　　　火曜14：00～18：00　　　　　　　土曜9：00～12：30", "X_BLDD": 139.637687, "Y_BLDD": 35.216314, "VIEWFLG": 1 }, "geometry": { "type": "Point", "coordinates": [ 139.634473229276665, 35.219605892254833 ] } }
,
{ "type": "Feature", "properties": { "USERID": 13200, "LAYERCODE": 111996011, "LAYERNAME": "AEDステーション", "NAME": "小池歯科医院", "ADDRESS": "野比1-20-1", "TEL": "046-847-0840", "FAX": null, "URL": null, "INFO": "AED：玄関口に1台設置。開設時間：8:30～18:00（木・日曜除く）", "X_BLDD": 139.688099, "Y_BLDD": 35.20985, "VIEWFLG": 1 }, "geometry": { "type": "Point", "coordinates": [ 139.684881156142012, 35.213142124975619 ] } }
,
{ "type": "Feature", "properties": { "USERID": 12974, "LAYERCODE": 111996011, "LAYERNAME": "AEDステーション", "NAME": "田浦内科クリニック", "ADDRESS": "横須賀市船越町1-58-6", "TEL": "046-860-1788", "FAX": null, "URL": null, "INFO": "開設時間　（月～木・土曜）9：00～18：00（12：00～15：00を除く）　　　　　　　金曜9：00～12：00", "X_BLDD": 139.631884, "Y_BLDD": 35.297337, "VIEWFLG": 1 }, "geometry": { "type": "Point", "coordinates": [ 139.628671773597546, 35.300620311261319 ] } }
,
{ "type": "Feature", "properties": { "USERID": 12591, "LAYERCODE": 111996011, "LAYERNAME": "AEDステーション", "NAME": "私立湘南学院高等学校", "ADDRESS": "日の出町3-3", "TEL": null, "FAX": null, "URL": null, "INFO": null, "X_BLDD": 139.681, "Y_BLDD": 35.27271, "VIEWFLG": 1 }, "geometry": { "type": "Point", "coordinates": [ 139.677783560181268, 35.275995493584482 ] } }
,
{ "type": "Feature", "properties": { "USERID": 12582, "LAYERCODE": 111996011, "LAYERNAME": "AEDステーション", "NAME": "あきやま整形外科", "ADDRESS": "横須賀市根岸町１－９－９", "TEL": null, "FAX": null, "URL": null, "INFO": null, "X_BLDD": 139.68897, "Y_BLDD": 35.24817, "VIEWFLG": 1 }, "geometry": { "type": "Point", "coordinates": [ 139.685752601344205, 35.251458035833181 ] } }
,
{ "type": "Feature", "properties": { "USERID": 13152, "LAYERCODE": 111996011, "LAYERNAME": "AEDステーション", "NAME": "長井サニーヒル", "ADDRESS": "長井6-21-7", "TEL": "046-855-3032", "FAX": null, "URL": null, "INFO": "AED：医務室に1台設置。開設時間：24時間", "X_BLDD": 139.612256, "Y_BLDD": 35.19178, "VIEWFLG": 1 }, "geometry": { "type": "Point", "coordinates": [ 139.609043911312142, 35.195074736030847 ] } }
,
{ "type": "Feature", "properties": { "USERID": 12667, "LAYERCODE": 111996011, "LAYERNAME": "AEDステーション", "NAME": "横須賀スタジアム", "ADDRESS": "夏島町２", "TEL": null, "FAX": null, "URL": null, "INFO": null, "X_BLDD": 139.63852, "Y_BLDD": 35.31517, "VIEWFLG": 1 }, "geometry": { "type": "Point", "coordinates": [ 139.635307487098402, 35.318451351080483 ] } }
,
{ "type": "Feature", "properties": { "USERID": 13081, "LAYERCODE": 111996011, "LAYERNAME": "AEDステーション", "NAME": "横須賀市立市民活動サポートセンター", "ADDRESS": "本町3-27ベイスクエア一番館１階", "TEL": "046-828-3130", "FAX": null, "URL": null, "INFO": "AED：受付に1台設置。開設時間：9時～22時　休館日：年末・年始（12月29日から1月3日）", "X_BLDD": 139.665465, "Y_BLDD": 35.27793, "VIEWFLG": 1 }, "geometry": { "type": "Point", "coordinates": [ 139.662249858375617, 35.281215077286845 ] } }
,
{ "type": "Feature", "properties": { "USERID": 13193, "LAYERCODE": 111996011, "LAYERNAME": "AEDステーション", "NAME": "プラザデンタルクリニック", "ADDRESS": "本町2-1-2ショッパーズプラザ３F", "TEL": "821-2501", "FAX": null, "URL": null, "INFO": "AED：診療室に1台設置。開設時間：10:00～19:00（月～土曜）10:00～14:00（日曜）", "X_BLDD": 139.666108, "Y_BLDD": 35.279646, "VIEWFLG": 1 }, "geometry": { "type": "Point", "coordinates": [ 139.662892830496958, 35.282930888671423 ] } }
,
{ "type": "Feature", "properties": { "USERID": 12347, "LAYERCODE": 111996011, "LAYERNAME": "AEDステーション", "NAME": "湘南国際村西公園", "ADDRESS": "湘南国際村1-3509-5", "TEL": "046-858-0779", "FAX": null, "URL": "http:\/\/www.city.yokosuka.kanagawa.jp\/4130\/sisetu\/fc00000049.html", "INFO": "AED：管理事務所内に1台設置。開設時間：4～9月　8:30～19:00 \/ 10～3月　8:30～17:00（4～9月の土日祝のみ　6:30～19:00）", "X_BLDD": 139.60877, "Y_BLDD": 35.2503, "VIEWFLG": 1 }, "geometry": { "type": "Point", "coordinates": [ 139.605558972269648, 35.253588532093886 ] } }
,
{ "type": "Feature", "properties": { "USERID": 12661, "LAYERCODE": 111996011, "LAYERNAME": "AEDステーション", "NAME": "医療法人社団　小磯診療所", "ADDRESS": "鴨居2-80-9", "TEL": "046-842-9571", "FAX": null, "URL": null, "INFO": "AED：1台設置　開設時間　平日9：00～19：00（12：00～17：00を除く）　　　　　　　土日9：00～12：00", "X_BLDD": 139.7333, "Y_BLDD": 35.23906, "VIEWFLG": 1 }, "geometry": { "type": "Point", "coordinates": [ 139.730078974989709, 35.242348606067281 ] } }
,
{ "type": "Feature", "properties": { "USERID": 13080, "LAYERCODE": 111996011, "LAYERNAME": "AEDステーション", "NAME": "横須賀市立田浦保育園", "ADDRESS": "長浦町１－１５９７", "TEL": "046-823-2610", "FAX": null, "URL": null, "INFO": "AED：事務室に1台設置。開設時間：平日７：00～20：00・土曜７：00～18：00", "X_BLDD": 139.648743, "Y_BLDD": 35.289554, "VIEWFLG": 1 }, "geometry": { "type": "Point", "coordinates": [ 139.645529336216441, 35.292837989141319 ] } }
,
{ "type": "Feature", "properties": { "USERID": 13079, "LAYERCODE": 111996011, "LAYERNAME": "AEDステーション", "NAME": "横須賀市立武山保育園", "ADDRESS": "武４－１７－１", "TEL": "046-856-3175", "FAX": null, "URL": null, "INFO": "AED：事務室に1台設置。開設時間：平日７：00～19：00・土曜７：30～16：00", "X_BLDD": 139.645879, "Y_BLDD": 35.221846, "VIEWFLG": 1 }, "geometry": { "type": "Point", "coordinates": [ 139.642664655636366, 35.225137228896052 ] } }
,
{ "type": "Feature", "properties": { "USERID": 12644, "LAYERCODE": 111996011, "LAYERNAME": "AEDステーション", "NAME": "セントラルホテル", "ADDRESS": "若松町2-8", "TEL": null, "FAX": null, "URL": null, "INFO": "①３階フロント②４階宴会場事務室③５階宴会場事務室", "X_BLDD": 139.67272, "Y_BLDD": 35.27611, "VIEWFLG": 1 }, "geometry": { "type": "Point", "coordinates": [ 139.669504260361379, 35.279395205899021 ] } }
,
{ "type": "Feature", "properties": { "USERID": 13198, "LAYERCODE": 111996011, "LAYERNAME": "AEDステーション", "NAME": "平嶺歯科医院", "ADDRESS": "金谷2-2-5", "TEL": "852-0118", "FAX": null, "URL": null, "INFO": "AED：診療室に1台設置。開設時間：9:30～19:00（木曜除く平日）9:30～16:00（土日）", "X_BLDD": 139.657453, "Y_BLDD": 35.2583, "VIEWFLG": 1 }, "geometry": { "type": "Point", "coordinates": [ 139.654238229089373, 35.261587240849821 ] } }
,
{ "type": "Feature", "properties": { "USERID": 13025, "LAYERCODE": 111996011, "LAYERNAME": "AEDステーション", "NAME": "武山加藤医院", "ADDRESS": "林3-1-7", "TEL": "046-856-6636", "FAX": null, "URL": null, "INFO": "AED：第1診察室に1台設置　開設時間　平日9：00～18：00（12：00～14：30除く）　　　　　　　土曜9：00～12：00", "X_BLDD": 139.643552, "Y_BLDD": 35.215557, "VIEWFLG": 1 }, "geometry": { "type": "Point", "coordinates": [ 139.640337755267808, 35.218848919884984 ] } }
,
{ "type": "Feature", "properties": { "USERID": 13187, "LAYERCODE": 111996011, "LAYERNAME": "AEDステーション", "NAME": "横須賀小川町教会", "ADDRESS": "小川町７", "TEL": "822-2463", "FAX": null, "URL": null, "INFO": "AED:2階礼拝堂前に1台設置。開設時間：日曜日の10:00～15:00", "X_BLDD": 139.673624, "Y_BLDD": 35.278735, "VIEWFLG": 1 }, "geometry": { "type": "Point", "coordinates": [ 139.670408224016114, 35.282019918099962 ] } }
,
{ "type": "Feature", "properties": { "USERID": 12476, "LAYERCODE": 111996011, "LAYERNAME": "AEDステーション", "NAME": "はぐくみかん", "ADDRESS": "小川町16", "TEL": "046-822-8265", "FAX": null, "URL": null, "INFO": "ＡＥＤ：1階事務室に1台設置。開設時間：平日8：30～17：15（年末年始を除く）", "X_BLDD": 139.67586, "Y_BLDD": 35.2792, "VIEWFLG": 1 }, "geometry": { "type": "Point", "coordinates": [ 139.672644053444742, 35.282484848439118 ] } }
,
{ "type": "Feature", "properties": { "USERID": 12995, "LAYERCODE": 111996011, "LAYERNAME": "AEDステーション", "NAME": "新明外科胃腸科", "ADDRESS": "金谷2-2-15", "TEL": "046-853-3228", "FAX": null, "URL": null, "INFO": "AED：処置室に1台設置　開設時間　木曜を除く月～土曜（9：00～18：30）", "X_BLDD": 139.656707, "Y_BLDD": 35.258899, "VIEWFLG": 1 }, "geometry": { "type": "Point", "coordinates": [ 139.653492296104872, 35.262186183754942 ] } }
,
{ "type": "Feature", "properties": { "USERID": 12346, "LAYERCODE": 111996011, "LAYERNAME": "AEDステーション", "NAME": "西公園", "ADDRESS": "武3-458-1", "TEL": "046-857-6022", "FAX": null, "URL": "http:\/\/www.city.yokosuka.kanagawa.jp\/4130\/sisetu\/fc00000045.html", "INFO": "AED：管理事務所内に1台設置。開設時間：4～9月　5:30～21:00 \/ 10～3月　8:30～21:00", "X_BLDD": 139.64946, "Y_BLDD": 35.21502, "VIEWFLG": 1 }, "geometry": { "type": "Point", "coordinates": [ 139.64624528082939, 35.218311923684368 ] } }
,
{ "type": "Feature", "properties": { "USERID": 13076, "LAYERCODE": 111996011, "LAYERNAME": "AEDステーション", "NAME": "横須賀市立鴨居保育園", "ADDRESS": "鴨居３－１－６", "TEL": "046-841-2708", "FAX": null, "URL": null, "INFO": "AED：事務室に1台設置。開設時間：平日７：00～19：00・土曜７：30～16：00", "X_BLDD": 139.736404, "Y_BLDD": 35.247081, "VIEWFLG": 1 }, "geometry": { "type": "Point", "coordinates": [ 139.733182837203827, 35.250368723970936 ] } }
,
{ "type": "Feature", "properties": { "USERID": 12911, "LAYERCODE": 111996011, "LAYERNAME": "AEDステーション", "NAME": "フィジカルトレーニングセンター悠", "ADDRESS": "衣笠町46-7", "TEL": "046-838-5075", "FAX": null, "URL": null, "INFO": "AED：1階フロア内に1台設置　開設時間　8：45～17：30", "X_BLDD": 139.66526, "Y_BLDD": 35.23806, "VIEWFLG": 1 }, "geometry": { "type": "Point", "coordinates": [ 139.662044340490951, 35.241349326653761 ] } }
,
{ "type": "Feature", "properties": { "USERID": 13015, "LAYERCODE": 111996011, "LAYERNAME": "AEDステーション", "NAME": "鎌倉医院", "ADDRESS": "野比2-29-22", "TEL": "046-848-1896", "FAX": null, "URL": null, "INFO": "AED：診察室に1台設置　開設時間　平日8：30～18：30　　　　　　　土曜8：30～12：30", "X_BLDD": 139.688508, "Y_BLDD": 35.206581, "VIEWFLG": 1 }, "geometry": { "type": "Point", "coordinates": [ 139.685290079908555, 35.209873469409168 ] } }
,
{ "type": "Feature", "properties": { "USERID": 12552, "LAYERCODE": 111996011, "LAYERNAME": "AEDステーション", "NAME": "（株）岡村製作所　追浜事業所", "ADDRESS": "横須賀市浦郷町５－２９４４－１", "TEL": null, "FAX": null, "URL": null, "INFO": null, "X_BLDD": 139.64279, "Y_BLDD": 35.31272, "VIEWFLG": 1 }, "geometry": { "type": "Point", "coordinates": [ 139.639577116675412, 35.316001573871119 ] } }
,
{ "type": "Feature", "properties": { "USERID": 12924, "LAYERCODE": 111996011, "LAYERNAME": "AEDステーション", "NAME": "ぎんなん幼稚園", "ADDRESS": "大津町4－22－5", "TEL": null, "FAX": null, "URL": null, "INFO": null, "X_BLDD": 139.69605, "Y_BLDD": 35.25474, "VIEWFLG": 1 }, "geometry": { "type": "Point", "coordinates": [ 139.692832129654164, 35.258027272201758 ] } }
,
{ "type": "Feature", "properties": { "USERID": 12628, "LAYERCODE": 111996011, "LAYERNAME": "AEDステーション", "NAME": "パチンコ　パーラーアビバ北久里浜店", "ADDRESS": "根岸町2-21-5", "TEL": "046-837-8910", "FAX": null, "URL": null, "INFO": "AED：2階カウンターに1台設置　開設時間　9：00～22：45", "X_BLDD": 139.68892, "Y_BLDD": 35.24668, "VIEWFLG": 1 }, "geometry": { "type": "Point", "coordinates": [ 139.685702585326283, 35.249968194989584 ] } }
,
{ "type": "Feature", "properties": { "USERID": 12928, "LAYERCODE": 111996011, "LAYERNAME": "AEDステーション", "NAME": "深浦ボートパーク", "ADDRESS": "浦郷町1－60－8", "TEL": null, "FAX": null, "URL": null, "INFO": null, "X_BLDD": 139.641359, "Y_BLDD": 35.305071, "VIEWFLG": 1 }, "geometry": { "type": "Point", "coordinates": [ 139.638146127631643, 35.308353401903076 ] } }
,
{ "type": "Feature", "properties": { "USERID": 13122, "LAYERCODE": 111996011, "LAYERNAME": "AEDステーション", "NAME": "東京湾フェリー本社ビル", "ADDRESS": "久里浜8-17-5", "TEL": "046-830-5621", "FAX": null, "URL": null, "INFO": "AED:1階レストラン内に1台設置　開設時間　平日9:00～17:00", "X_BLDD": 139.71729, "Y_BLDD": 35.216989, "VIEWFLG": 1 }, "geometry": { "type": "Point", "coordinates": [ 139.714071944161503, 35.220280100796337 ] } }
,
{ "type": "Feature", "properties": { "USERID": 12927, "LAYERCODE": 111996011, "LAYERNAME": "AEDステーション", "NAME": "南処理工場", "ADDRESS": "新明町2187", "TEL": "046-835-4990", "FAX": null, "URL": null, "INFO": "AED：計量棟に1台設置。　開設時間：月曜～金曜8：30～16：00（祝日も含む）", "X_BLDD": 139.711793, "Y_BLDD": 35.214501, "VIEWFLG": 1 }, "geometry": { "type": "Point", "coordinates": [ 139.70857334544425, 35.217792415436975 ] } }
,
{ "type": "Feature", "properties": { "USERID": 13121, "LAYERCODE": 111996011, "LAYERNAME": "AEDステーション", "NAME": "ハイランドスポーツセンター（プール）", "ADDRESS": "ハイランド1-39", "TEL": "046-848-2391", "FAX": null, "URL": null, "INFO": "AED受付横に1台設置　　開設時間　7：00～21：00（7月中旬～9月上旬まで）", "X_BLDD": 139.69386, "Y_BLDD": 35.219595, "VIEWFLG": 1 }, "geometry": { "type": "Point", "coordinates": [ 139.690646831099144, 35.222886035036929 ] } }
,
{ "type": "Feature", "properties": { "USERID": 13068, "LAYERCODE": 111996011, "LAYERNAME": "AEDステーション", "NAME": "衣笠愛児園", "ADDRESS": "横須賀市平作8-14-1", "TEL": "046-851-2214", "FAX": null, "URL": null, "INFO": "AED：1台設置　開設時間　平日7：00～19：00　　　　　　　土曜7：00～16：00", "X_BLDD": 139.65367, "Y_BLDD": 35.25632, "VIEWFLG": 1 }, "geometry": { "type": "Point", "coordinates": [ 139.650455501718113, 35.259607485892865 ] } }
,
{ "type": "Feature", "properties": { "USERID": 12388, "LAYERCODE": 111996011, "LAYERNAME": "AEDステーション", "NAME": "下町浄化センター", "ADDRESS": "三春町2-1", "TEL": "046-823-5821", "FAX": null, "URL": "http:\/\/www.city.yokosuka.kanagawa.jp\/6970\/sisetu\/fc00000063.html", "INFO": "AED：事務室に1台設置。開設時間：平日８：３０～１７：１５", "X_BLDD": 139.69076, "Y_BLDD": 35.26469, "VIEWFLG": 1 }, "geometry": { "type": "Point", "coordinates": [ 139.687542681155691, 35.267976260030437 ] } }
,
{ "type": "Feature", "properties": { "USERID": 12611, "LAYERCODE": 111996011, "LAYERNAME": "AEDステーション", "NAME": "㈱アビバ　アフェスタ三春町店", "ADDRESS": "三春町4-1", "TEL": "046-820-1155", "FAX": null, "URL": null, "INFO": "AED景品カウンターに1台設置　　開設時間　9：00～22：45", "X_BLDD": 139.69353, "Y_BLDD": 35.2619, "VIEWFLG": 1 }, "geometry": { "type": "Point", "coordinates": [ 139.690312424796957, 35.265186532264245 ] } }
,
{ "type": "Feature", "properties": { "USERID": 13196, "LAYERCODE": 111996011, "LAYERNAME": "AEDステーション", "NAME": "西田歯科医院", "ADDRESS": "粟田2-31-8", "TEL": "848-7275", "FAX": null, "URL": null, "INFO": "AED：診療室に1台設置。開設時間：8:30～19:30（月・火・金）8:30～18:00（水）8:30～16:00（土）", "X_BLDD": 139.684585, "Y_BLDD": 35.224339, "VIEWFLG": 1 }, "geometry": { "type": "Point", "coordinates": [ 139.681367628448356, 35.227629613648872 ] } }
,
{ "type": "Feature", "properties": { "USERID": 12662, "LAYERCODE": 111996011, "LAYERNAME": "AEDステーション", "NAME": "北久里浜脳神経外科", "ADDRESS": "佐原3-3-12", "TEL": "046-838-4771", "FAX": null, "URL": null, "INFO": "AED:受付に1台設置　開設時間　平日9：00～18：00（12：00～14：30）　　　　　　　土曜9：00～12：00", "X_BLDD": 139.68821, "Y_BLDD": 35.23779, "VIEWFLG": 1 }, "geometry": { "type": "Point", "coordinates": [ 139.684992522274712, 35.241079148282736 ] } }
,
{ "type": "Feature", "properties": { "USERID": 13201, "LAYERCODE": 111996011, "LAYERNAME": "AEDステーション", "NAME": "ひまわり歯科", "ADDRESS": "長井3-26-11", "TEL": "857-1641", "FAX": null, "URL": null, "INFO": "AED：待合室に1台設置。開設時間：9:00～18:00（月・火曜）9:30～20:00（水曜）9:30～19:00（金曜）9:30～14:00（土曜）", "X_BLDD": 139.619035, "Y_BLDD": 35.204897, "VIEWFLG": 1 }, "geometry": { "type": "Point", "coordinates": [ 139.615822551272601, 35.20819027722434 ] } }
,
{ "type": "Feature", "properties": { "USERID": 12386, "LAYERCODE": 111996011, "LAYERNAME": "AEDステーション", "NAME": "逸見総合管理センター", "ADDRESS": "西逸見町2-10", "TEL": null, "FAX": null, "URL": "http:\/\/www.city.yokosuka.kanagawa.jp\/6930\/g_info\/l100050116.html", "INFO": null, "X_BLDD": 139.65231, "Y_BLDD": 35.27562, "VIEWFLG": 1 }, "geometry": { "type": "Point", "coordinates": [ 139.649095867702329, 35.278905441801442 ] } }
,
{ "type": "Feature", "properties": { "USERID": 12950, "LAYERCODE": 111996011, "LAYERNAME": "AEDステーション", "NAME": "武山コミュニティーセンター", "ADDRESS": "武３－５－１", "TEL": "046-857-1600", "FAX": null, "URL": null, "INFO": "AED：1階事務室に１台設置。　開設時間：9：00～21:00（休館日・年末年始、臨時休館を除く）", "X_BLDD": 139.650428, "Y_BLDD": 35.222376, "VIEWFLG": 1 }, "geometry": { "type": "Point", "coordinates": [ 139.647213302998153, 35.22566713133574 ] } }
,
{ "type": "Feature", "properties": { "USERID": 12319, "LAYERCODE": 111996011, "LAYERNAME": "AEDステーション", "NAME": "ウェルシティ市民プラザ", "ADDRESS": "西逸見町1-38-11", "TEL": "046-824-7561", "FAX": null, "URL": "http:\/\/www.city.yokosuka.kanagawa.jp\/3110\/wellcity\/index.html", "INFO": "AED：1階中央監視室に1台設置。", "X_BLDD": 139.65606, "Y_BLDD": 35.28118, "VIEWFLG": 1 }, "geometry": { "type": "Point", "coordinates": [ 139.652845645565776, 35.284464815631729 ] } }
,
{ "type": "Feature", "properties": { "USERID": 13050, "LAYERCODE": 111996011, "LAYERNAME": "AEDステーション", "NAME": "横須賀市保健所(ウェルシティ市民プラザ3階)", "ADDRESS": "横須賀市西逸見町1-38-11", "TEL": "046-822-4300", "FAX": null, "URL": null, "INFO": "AED：保健所に1台設置。開設時間：平日8：30～17：00（年末年始除く）", "X_BLDD": 139.65606, "Y_BLDD": 35.28118, "VIEWFLG": 1 }, "geometry": { "type": "Point", "coordinates": [ 139.652845645565776, 35.284464815631729 ] } }
,
{ "type": "Feature", "properties": { "USERID": 12305, "LAYERCODE": 111996011, "LAYERNAME": "AEDステーション", "NAME": "横須賀市はまゆう会館", "ADDRESS": "衣笠栄町1-47", "TEL": "046-852-1166", "FAX": null, "URL": "http:\/\/www.city.yokosuka.kanagawa.jp\/0130\/sisetu\/fc00000025.html", "INFO": "AED：B1Fｱﾄﾘｳﾑ出入口に１台設置。　開設時間：9：00～19：00※休館日【毎週水曜日(水曜日が祝祭日にあたる際は翌日）、12\/29～1\/3】", "X_BLDD": 139.66681, "Y_BLDD": 35.25589, "VIEWFLG": 1 }, "geometry": { "type": "Point", "coordinates": [ 139.663594456902246, 35.259177413271367 ] } }
,
{ "type": "Feature", "properties": { "USERID": 13051, "LAYERCODE": 111996011, "LAYERNAME": "AEDステーション", "NAME": "横須賀市健康増進センター（すこやかん）", "ADDRESS": "西逸見町1-38-11 ウェルシティ市民プラザ6階", "TEL": "046-822-4411", "FAX": null, "URL": null, "INFO": "AED：事務室に1台設置。開設時間：9:30～21:30　（休館日　12月29日～1月3日。他に点検等のための臨時休館日あり。）", "X_BLDD": 139.655342, "Y_BLDD": 35.281009, "VIEWFLG": 1 }, "geometry": { "type": "Point", "coordinates": [ 139.652127700055246, 35.284293840311733 ] } }
,
{ "type": "Feature", "properties": { "USERID": 12385, "LAYERCODE": 111996011, "LAYERNAME": "AEDステーション", "NAME": "秋谷船舶保管施設", "ADDRESS": "秋谷1-127", "TEL": null, "FAX": null, "URL": "http:\/\/www.city.yokosuka.kanagawa.jp\/6610\/sisetu\/fc10000901.html", "INFO": null, "X_BLDD": 139.60277, "Y_BLDD": 35.23128, "VIEWFLG": 1 }, "geometry": { "type": "Point", "coordinates": [ 139.599559191939079, 35.234570613087186 ] } }
,
{ "type": "Feature", "properties": { "USERID": 12384, "LAYERCODE": 111996011, "LAYERNAME": "AEDステーション", "NAME": "うみかぜ公園", "ADDRESS": "平成町3-23", "TEL": null, "FAX": null, "URL": "http:\/\/www.city.yokosuka.kanagawa.jp\/6610\/sisetu\/fc00000441.html", "INFO": "うみかぜ公園管理事務所に設置", "X_BLDD": 139.68693, "Y_BLDD": 35.27301, "VIEWFLG": 1 }, "geometry": { "type": "Point", "coordinates": [ 139.683713095357035, 35.276295408240131 ] } }
,
{ "type": "Feature", "properties": { "USERID": 12383, "LAYERCODE": 111996011, "LAYERNAME": "AEDステーション", "NAME": "海辺つり公園", "ADDRESS": "平成町3-1", "TEL": null, "FAX": null, "URL": "http:\/\/www.city.yokosuka.kanagawa.jp\/6610\/sisetu\/fc00000440.html", "INFO": "海辺つり公園管理事務所に設置", "X_BLDD": 139.69358, "Y_BLDD": 35.26525, "VIEWFLG": 1 }, "geometry": { "type": "Point", "coordinates": [ 139.690362465711104, 35.268536174976816 ] } }
,
{ "type": "Feature", "properties": { "USERID": 13120, "LAYERCODE": 111996011, "LAYERNAME": "AEDステーション", "NAME": "ハイランドスポーツセンター（ゴルフ）", "ADDRESS": "ハイランド3-1", "TEL": "046-848-2391", "FAX": null, "URL": null, "INFO": "AED玄関ホールに1台設置　　開設時間　平日9：00～22：00　土・休日7：00～22：00　※冬季は時間が異なることがあります。", "X_BLDD": 139.689996, "Y_BLDD": 35.221372, "VIEWFLG": 1 }, "geometry": { "type": "Point", "coordinates": [ 139.686778160829391, 35.224662880752788 ] } }
,
{ "type": "Feature", "properties": { "USERID": 12556, "LAYERCODE": 111996011, "LAYERNAME": "AEDステーション", "NAME": "業務スーパー横須賀店リカーポート（株）昭和", "ADDRESS": "横須賀市日の出町３－１７", "TEL": "046-822-0431", "FAX": null, "URL": null, "INFO": "AEDサービスカウンター内に1台設置　　開設時間　9：00～20：00", "X_BLDD": 139.68288, "Y_BLDD": 35.27294, "VIEWFLG": 1 }, "geometry": { "type": "Point", "coordinates": [ 139.679663414620791, 35.276225452157533 ] } }
,
{ "type": "Feature", "properties": { "USERID": 12603, "LAYERCODE": 111996011, "LAYERNAME": "AEDステーション", "NAME": "パチンコ　パレス会館", "ADDRESS": "太田和1-6-3", "TEL": null, "FAX": null, "URL": null, "INFO": null, "X_BLDD": 139.63644, "Y_BLDD": 35.21707, "VIEWFLG": 1 }, "geometry": { "type": "Point", "coordinates": [ 139.633226338047649, 35.220361822986845 ] } }
,
{ "type": "Feature", "properties": { "USERID": 12607, "LAYERCODE": 111996011, "LAYERNAME": "AEDステーション", "NAME": "パチンコ　ＰＡＮＤＯＲＡ", "ADDRESS": "本町2-1-12（ショッパーズプラザ内）", "TEL": null, "FAX": null, "URL": null, "INFO": null, "X_BLDD": 139.66526, "Y_BLDD": 35.27935, "VIEWFLG": 1 }, "geometry": { "type": "Point", "coordinates": [ 139.662044893588984, 35.282634927838828 ] } }
,
{ "type": "Feature", "properties": { "USERID": 12608, "LAYERCODE": 111996011, "LAYERNAME": "AEDステーション", "NAME": "パチンコ　ＰＡＮＤＯＲＡ８", "ADDRESS": "本町2-1-12（ショッパーズプラザ内）", "TEL": null, "FAX": null, "URL": null, "INFO": null, "X_BLDD": 139.6652, "Y_BLDD": 35.27957, "VIEWFLG": 1 }, "geometry": { "type": "Point", "coordinates": [ 139.661984901277407, 35.28285490493888 ] } }
,
{ "type": "Feature", "properties": { "USERID": 12617, "LAYERCODE": 111996011, "LAYERNAME": "AEDステーション", "NAME": "パチンコ　ＺＡＰ久里浜店", "ADDRESS": "久里浜4-6-18", "TEL": null, "FAX": null, "URL": null, "INFO": null, "X_BLDD": 139.70599, "Y_BLDD": 35.22688, "VIEWFLG": 1 }, "geometry": { "type": "Point", "coordinates": [ 139.702770970312343, 35.230170149667778 ] } }
,
{ "type": "Feature", "properties": { "USERID": 12621, "LAYERCODE": 111996011, "LAYERNAME": "AEDステーション", "NAME": "パチンコ　ゴールデンパレス", "ADDRESS": "東浦賀町1-25", "TEL": null, "FAX": null, "URL": null, "INFO": null, "X_BLDD": 139.71954, "Y_BLDD": 35.24614, "VIEWFLG": 1 }, "geometry": { "type": "Point", "coordinates": [ 139.716320157509045, 35.249427976299799 ] } }
,
{ "type": "Feature", "properties": { "USERID": 12627, "LAYERCODE": 111996011, "LAYERNAME": "AEDステーション", "NAME": "パチンコ　馬堀マリーン", "ADDRESS": "大津町1-22-8", "TEL": null, "FAX": null, "URL": null, "INFO": null, "X_BLDD": 139.69838, "Y_BLDD": 35.26138, "VIEWFLG": 1 }, "geometry": { "type": "Point", "coordinates": [ 139.695162034408924, 35.264666543953204 ] } }
,
{ "type": "Feature", "properties": { "USERID": 12629, "LAYERCODE": 111996011, "LAYERNAME": "AEDステーション", "NAME": "パチンコ　ＺＡＰプレステージ店", "ADDRESS": "舟倉1-1-27", "TEL": null, "FAX": null, "URL": null, "INFO": null, "X_BLDD": 139.69837, "Y_BLDD": 35.23721, "VIEWFLG": 1 }, "geometry": { "type": "Point", "coordinates": [ 139.695151711263605, 35.240499118353021 ] } }
,
{ "type": "Feature", "properties": { "USERID": 12313, "LAYERCODE": 111996011, "LAYERNAME": "AEDステーション", "NAME": "北下浦行政センター", "ADDRESS": "長沢2-7-7", "TEL": null, "FAX": null, "URL": "http:\/\/www.city.yokosuka.kanagawa.jp\/2494\/sisetu\/fc00000083.html", "INFO": "AED１階事務室内に１台設置　開設時間　8：30～17：00", "X_BLDD": 139.68247, "Y_BLDD": 35.20184, "VIEWFLG": 1 }, "geometry": { "type": "Point", "coordinates": [ 139.679252493619686, 35.205133028931641 ] } }
,
{ "type": "Feature", "properties": { "USERID": 12948, "LAYERCODE": 111996011, "LAYERNAME": "AEDステーション", "NAME": "鴨居コミュニティーセンター", "ADDRESS": "鴨居３－11－12", "TEL": null, "FAX": null, "URL": null, "INFO": "AED事務室内に１台設置　開設時間　8：30～21:00", "X_BLDD": 139.738441, "Y_BLDD": 35.247032, "VIEWFLG": 1 }, "geometry": { "type": "Point", "coordinates": [ 139.735219675554362, 35.250319710813756 ] } }
,
{ "type": "Feature", "properties": { "USERID": 12949, "LAYERCODE": 111996011, "LAYERNAME": "AEDステーション", "NAME": "岩戸コミュニティーセンター", "ADDRESS": "岩戸１－10－18", "TEL": null, "FAX": null, "URL": null, "INFO": "AED事務室内に１台設置　開設時間　8：30～21:00", "X_BLDD": 139.6811, "Y_BLDD": 35.228779, "VIEWFLG": 1 }, "geometry": { "type": "Point", "coordinates": [ 139.677881963635798, 35.232069172243399 ] } }
,
{ "type": "Feature", "properties": { "USERID": 12348, "LAYERCODE": 111996011, "LAYERNAME": "AEDステーション", "NAME": "猿島公園", "ADDRESS": "猿島1", "TEL": "046-822-9799", "FAX": null, "URL": "http:\/\/www.city.yokosuka.kanagawa.jp\/4130\/sisetu\/fc00000431.html", "INFO": "AED：管理棟に1台設置。開設時間：8：30～17：00", "X_BLDD": 139.69702, "Y_BLDD": 35.2823, "VIEWFLG": 1 }, "geometry": { "type": "Point", "coordinates": [ 139.693802422000459, 35.285584327804116 ] } }
,
{ "type": "Feature", "properties": { "USERID": 12390, "LAYERCODE": 111996011, "LAYERNAME": "AEDステーション", "NAME": "西浄化センター", "ADDRESS": "長坂2-2-2", "TEL": "046-857-6596", "FAX": null, "URL": "http:\/\/www.city.yokosuka.kanagawa.jp\/6970\/sisetu\/fc00000067.html", "INFO": "AED：事務室に1位設置。開設時間：平日８：３０～１７：１５", "X_BLDD": 139.62642, "Y_BLDD": 35.21802, "VIEWFLG": 1 }, "geometry": { "type": "Point", "coordinates": [ 139.623207143303603, 35.2213118123341 ] } }
,
{ "type": "Feature", "properties": { "USERID": 12609, "LAYERCODE": 111996011, "LAYERNAME": "AEDステーション", "NAME": "パチンコ　キコーナ", "ADDRESS": "日の出町3-19-1", "TEL": null, "FAX": null, "URL": null, "INFO": "AED：事務室に1台設置。開設時間：9：00～23：00", "X_BLDD": 139.68384, "Y_BLDD": 35.27318, "VIEWFLG": 1 }, "geometry": { "type": "Point", "coordinates": [ 139.680623341933369, 35.27646541794801 ] } }
,
{ "type": "Feature", "properties": { "USERID": 12380, "LAYERCODE": 111996011, "LAYERNAME": "AEDステーション", "NAME": "南体育会館くりはま花の国プール", "ADDRESS": "神明町1821-12", "TEL": "046-835-7754", "FAX": null, "URL": "http:\/\/www.city.yokosuka.kanagawa.jp\/8340\/sisetu\/fc00000452.html", "INFO": "ＡＥＤ：1階ロビーに1台設置。開設時間：9：00～21：00（休館日を除く）※温水プールは9：30～21：00", "X_BLDD": 139.71323, "Y_BLDD": 35.21508, "VIEWFLG": 1 }, "geometry": { "type": "Point", "coordinates": [ 139.710010239624324, 35.218371340791414 ] } }
,
{ "type": "Feature", "properties": { "USERID": 12674, "LAYERCODE": 111996011, "LAYERNAME": "AEDステーション", "NAME": "リハビリデイセンター悠　第２", "ADDRESS": "根岸町4-20-1", "TEL": "046-838-5660", "FAX": null, "URL": null, "INFO": "AED：1台設置　開設時間　8:30～17:30", "X_BLDD": 139.68257, "Y_BLDD": 35.25017, "VIEWFLG": 1 }, "geometry": { "type": "Point", "coordinates": [ 139.679353134146112, 35.253457880515938 ] } }
,
{ "type": "Feature", "properties": { "USERID": 12389, "LAYERCODE": 111996011, "LAYERNAME": "AEDステーション", "NAME": "追浜浄化センター", "ADDRESS": "浦郷町5-2931", "TEL": "046-865-3321", "FAX": null, "URL": "http:\/\/www.city.yokosuka.kanagawa.jp\/6970\/sisetu\/fc00000065.html", "INFO": "AED：事務室に1台設置。開設時間：平日８：３０～１７：１５", "X_BLDD": 139.646, "Y_BLDD": 35.30904, "VIEWFLG": 1 }, "geometry": { "type": "Point", "coordinates": [ 139.642786813648456, 35.312321937244448 ] } }
,
{ "type": "Feature", "properties": { "USERID": 12378, "LAYERCODE": 111996011, "LAYERNAME": "AEDステーション", "NAME": "西体育会館", "ADDRESS": "長坂1-2-3", "TEL": "046-856-8199", "FAX": null, "URL": "http:\/\/www.city.yokosuka.kanagawa.jp\/8340\/sisetu\/fc00000386.html", "INFO": "AED：1階ロビーに１台設置。開設時間：9：00～21：00（休館日を除く）", "X_BLDD": 139.62856, "Y_BLDD": 35.21825, "VIEWFLG": 1 }, "geometry": { "type": "Point", "coordinates": [ 139.625346977127862, 35.221541768490397 ] } }
,
{ "type": "Feature", "properties": { "USERID": 12477, "LAYERCODE": 111996011, "LAYERNAME": "AEDステーション", "NAME": "産業交流プラザ（ベイスクエア１番館３階）", "ADDRESS": "本町3-27", "TEL": "046-828-1630", "FAX": null, "URL": "http:\/\/www.city.yokosuka.kanagawa.jp\/0130\/sisetu\/fc00000111.html", "INFO": "ＡＥＤ：受付前に1台設置。開設時間：9:00～22:00（年末年始を除く）", "X_BLDD": 139.6661, "Y_BLDD": 35.27784, "VIEWFLG": 1 }, "geometry": { "type": "Point", "coordinates": [ 139.662884806960307, 35.281125081161392 ] } }
,
{ "type": "Feature", "properties": { "USERID": 12339, "LAYERCODE": 111996011, "LAYERNAME": "AEDステーション", "NAME": "ヴェルクよこすか", "ADDRESS": "日の出町1-5", "TEL": "046-822-0202", "FAX": null, "URL": "http:\/\/www.city.yokosuka.kanagawa.jp\/4402\/sisetu\/fc00000084.html", "INFO": "AED：受付内に1台設置。開設時間：9:00～21:00【第３木曜日（祝日の場合は翌日）、年末年始（12\/29～1\/3)を除く】", "X_BLDD": 139.67731, "Y_BLDD": 35.27719, "VIEWFLG": 1 }, "geometry": { "type": "Point", "coordinates": [ 139.674093911898098, 35.280475049529201 ] } }
,
{ "type": "Feature", "properties": { "USERID": 12469, "LAYERCODE": 111996011, "LAYERNAME": "AEDステーション", "NAME": "婦人会館", "ADDRESS": "馬堀町1-6-3", "TEL": "046-834-6515", "FAX": null, "URL": "http:\/\/www.city.yokosuka.kanagawa.jp\/8120\/sisetu\/fc00000569.html", "INFO": "AED：玄関内付近に1台設置。開設時間：火曜日～日曜日の9：00～１７：00※上記のうち国民の祝日の翌日（その日が月曜日の場合はその翌日）、及び年末年始は休館", "X_BLDD": 139.70359, "Y_BLDD": 35.25689, "VIEWFLG": 1 }, "geometry": { "type": "Point", "coordinates": [ 139.7003715623907, 35.260176975237798 ] } }
,
{ "type": "Feature", "properties": { "USERID": 12301, "LAYERCODE": 111996011, "LAYERNAME": "AEDステーション", "NAME": "横須賀市役所本庁舎", "ADDRESS": "小川町11", "TEL": "046-822-4000", "FAX": null, "URL": "http:\/\/www.city.yokosuka.kanagawa.jp\/0210\/sisetu\/fc00000021.html", "INFO": "AED設置場所：①　1号館正面玄関　②　1号館北口玄関　③　分館玄関　④３号館１階　生活彩家　開設時間：平日８：３０～１７：００（１２月２９～１月３日を除く）", "X_BLDD": 139.6755, "Y_BLDD": 35.27774, "VIEWFLG": 1 }, "geometry": { "type": "Point", "coordinates": [ 139.672284062369386, 35.281025007223228 ] } }
,
{ "type": "Feature", "properties": { "USERID": 12345, "LAYERCODE": 111996011, "LAYERNAME": "AEDステーション", "NAME": "光の丘公園", "ADDRESS": "光の丘3752-2", "TEL": "046-849-9120", "FAX": null, "URL": "http:\/\/www.city.yokosuka.kanagawa.jp\/4130\/sisetu\/fc00000057.html", "INFO": "AED：管理事務所内に1台設置。開設時間：8:30～21:00（4～9月の土日祝のみ　6:30～21:00）", "X_BLDD": 139.67382, "Y_BLDD": 35.21985, "VIEWFLG": 1 }, "geometry": { "type": "Point", "coordinates": [ 139.670603419360646, 35.223141189032035 ] } }
,
{ "type": "Feature", "properties": { "USERID": 12521, "LAYERCODE": 111996011, "LAYERNAME": "AEDステーション", "NAME": "三浦藤沢信用金庫　坂本出張所", "ADDRESS": "横須賀市坂本町４－３", "TEL": null, "FAX": null, "URL": null, "INFO": null, "X_BLDD": 139.65801, "Y_BLDD": 35.26875, "VIEWFLG": 1 }, "geometry": { "type": "Point", "coordinates": [ 139.654795324991682, 35.272036122469764 ] } }
,
{ "type": "Feature", "properties": { "USERID": 12626, "LAYERCODE": 111996011, "LAYERNAME": "AEDステーション", "NAME": "パチンコ　アビバ北久里浜アネックス", "ADDRESS": "根岸町3-4-10", "TEL": null, "FAX": null, "URL": null, "INFO": null, "X_BLDD": 139.6886, "Y_BLDD": 35.24568, "VIEWFLG": 1 }, "geometry": { "type": "Point", "coordinates": [ 139.685382597221604, 35.24896830438928 ] } }
,
{ "type": "Feature", "properties": { "USERID": 13060, "LAYERCODE": 111996011, "LAYERNAME": "AEDステーション", "NAME": "しらかば保育園", "ADDRESS": "池田町１－２２－１２", "TEL": "046-834-0690", "FAX": null, "URL": null, "INFO": "AED：事務室に1台設置　開設時間　平日7：00～19：00　　　　　　　土曜7：00～18：00", "X_BLDD": 139.699295, "Y_BLDD": 35.252611, "VIEWFLG": 1 }, "geometry": { "type": "Point", "coordinates": [ 139.696076844591147, 35.25589846970874 ] } }
,
{ "type": "Feature", "properties": { "USERID": 12549, "LAYERCODE": 111996011, "LAYERNAME": "AEDステーション", "NAME": "文化興業（株）サンライズビル共用部", "ADDRESS": "横須賀市米が浜通１－４", "TEL": null, "FAX": null, "URL": null, "INFO": "AED:1階エントランスに1台設置　開設時間　9：00～17：30", "X_BLDD": 139.67992, "Y_BLDD": 35.27419, "VIEWFLG": 1 }, "geometry": { "type": "Point", "coordinates": [ 139.676703665382718, 35.277475345639729 ] } }
,
{ "type": "Feature", "properties": { "USERID": 12525, "LAYERCODE": 111996011, "LAYERNAME": "AEDステーション", "NAME": "三浦藤沢信用金庫　浦賀出張所", "ADDRESS": "横須賀市浦賀６－１－２８", "TEL": "046-843-1515", "FAX": null, "URL": null, "INFO": "AED職員通用口脇に1台設置　開設時間　平日9：00～15：00", "X_BLDD": 139.71795, "Y_BLDD": 35.24321, "VIEWFLG": 1 }, "geometry": { "type": "Point", "coordinates": [ 139.714730243910225, 35.246498302668527 ] } }
,
{ "type": "Feature", "properties": { "USERID": 12468, "LAYERCODE": 111996011, "LAYERNAME": "AEDステーション", "NAME": "万代会館", "ADDRESS": "津久井2-15-33", "TEL": "046-848-0043", "FAX": null, "URL": "http:\/\/www.city.yokosuka.kanagawa.jp\/8120\/sisetu\/fc00000443.html", "INFO": "AED：玄関内付近に1台設置。開設時間：火曜日～日曜日の9：00～１７：00　※上記のうち国民の祝日の翌日（その日が月曜日の場合はその翌日）、及び年末年始は休館", "X_BLDD": 139.67133, "Y_BLDD": 35.19644, "VIEWFLG": 1 }, "geometry": { "type": "Point", "coordinates": [ 139.66811330190049, 35.199733704846906 ] } }
,
{ "type": "Feature", "properties": { "USERID": 12664, "LAYERCODE": 111996011, "LAYERNAME": "AEDステーション", "NAME": "久里浜中央自動車学校", "ADDRESS": "久里浜5-13-1", "TEL": "046-835-3111", "FAX": null, "URL": null, "INFO": "AED設置場所：①4階事務所②4階ロビー③5階カフェテラス　開設時間　9：00～20：00", "X_BLDD": 139.70739, "Y_BLDD": 35.22585, "VIEWFLG": 1 }, "geometry": { "type": "Point", "coordinates": [ 139.704170845820443, 35.229140246707644 ] } }
,
{ "type": "Feature", "properties": { "USERID": 12613, "LAYERCODE": 111996011, "LAYERNAME": "AEDステーション", "NAME": "パチンコ 夢Ｑ", "ADDRESS": "衣笠栄町2-1-2", "TEL": "046-851-0794", "FAX": null, "URL": null, "INFO": "AED：店内カウンターに1台設置　開設時間　9：00～22：45", "X_BLDD": 139.66439, "Y_BLDD": 35.25476, "VIEWFLG": 1 }, "geometry": { "type": "Point", "coordinates": [ 139.661174633119288, 35.258047555466597 ] } }
,
{ "type": "Feature", "properties": { "USERID": 12531, "LAYERCODE": 111996011, "LAYERNAME": "AEDステーション", "NAME": "三浦藤沢信用金庫　武山支店", "ADDRESS": "横須賀市林１－３０－１０", "TEL": "046-857-1511", "FAX": null, "URL": null, "INFO": "AED:郵便受付近に1台設置　開設時間　平日9：00～15：00", "X_BLDD": 139.64045, "Y_BLDD": 35.21648, "VIEWFLG": 1 }, "geometry": { "type": "Point", "coordinates": [ 139.637236012983465, 35.219771849597073 ] } }
,
{ "type": "Feature", "properties": { "USERID": 13028, "LAYERCODE": 111996011, "LAYERNAME": "AEDステーション", "NAME": "山形医院", "ADDRESS": "武2-12-3", "TEL": "046-856-1456", "FAX": null, "URL": null, "INFO": "AED:診察室に1台設置　開設時間　（月・火・木・土曜）9：00～18：00（12：00～16：00を除く）　　　　　　　日曜9：00～12：00", "X_BLDD": 139.654459, "Y_BLDD": 35.225353, "VIEWFLG": 1 }, "geometry": { "type": "Point", "coordinates": [ 139.651244024166004, 35.228643777791248 ] } }
,
{ "type": "Feature", "properties": { "USERID": 12340, "LAYERCODE": 111996011, "LAYERNAME": "AEDステーション", "NAME": "追浜公園（横須賀スタジアム）", "ADDRESS": "夏島町2番2", "TEL": "046-865-3307", "FAX": null, "URL": "http:\/\/www.city.yokosuka.kanagawa.jp\/4130\/sisetu\/fc00000039.html", "INFO": "AED：管理事務所内に1台設置。開設時間：4～9月　5:30～21:00 \/ 10～3月　8:30～21:00", "X_BLDD": 139.6378, "Y_BLDD": 35.31646, "VIEWFLG": 1 }, "geometry": { "type": "Point", "coordinates": [ 139.634587561272753, 35.319741220053707 ] } }
,
{ "type": "Feature", "properties": { "USERID": 12656, "LAYERCODE": 111996011, "LAYERNAME": "AEDステーション", "NAME": "長井海の手公園（ソレイユの丘）", "ADDRESS": "長井4丁目3491番3", "TEL": "046-857-2500", "FAX": null, "URL": null, "INFO": "AED：温浴施設内に1台設置。開設時間：３～11月　9:00～18:00 \/ 12～２月　9:30～17:00", "X_BLDD": 139.61479, "Y_BLDD": 35.19081, "VIEWFLG": 1 }, "geometry": { "type": "Point", "coordinates": [ 139.611577697831706, 35.19410481642695 ] } }
,
{ "type": "Feature", "properties": { "USERID": 12344, "LAYERCODE": 111996011, "LAYERNAME": "AEDステーション", "NAME": "大津公園", "ADDRESS": "大津町5-11-2", "TEL": "046-823-1550", "FAX": null, "URL": "http:\/\/www.city.yokosuka.kanagawa.jp\/4130\/sisetu\/fc00000042.html", "INFO": "AED：管理事務所内に1台設置。開設時間：4～9月　5:30～19:00 \/ 10～3月　8:30～17:00", "X_BLDD": 139.69098, "Y_BLDD": 35.25444, "VIEWFLG": 1 }, "geometry": { "type": "Point", "coordinates": [ 139.687762526457476, 35.257727349860758 ] } }
,
{ "type": "Feature", "properties": { "USERID": 13203, "LAYERCODE": 111996011, "LAYERNAME": "AEDステーション", "NAME": "横須賀口腔衛生センター", "ADDRESS": "日の出町2-9", "TEL": "046-823-0062", "FAX": null, "URL": null, "INFO": "AED：診療所に1台設置。開設時間：平日9:00～17:00　日曜10:00～16:00", "X_BLDD": 139.681382, "Y_BLDD": 35.27436, "VIEWFLG": 1 }, "geometry": { "type": "Point", "coordinates": [ 139.678165552066474, 35.277645314368883 ] } }
,
{ "type": "Feature", "properties": { "USERID": 12307, "LAYERCODE": 111996011, "LAYERNAME": "AEDステーション", "NAME": "田浦行政センター", "ADDRESS": "船越町6-77", "TEL": "046-861-4181", "FAX": null, "URL": "http:\/\/www.city.yokosuka.kanagawa.jp\/2482\/sisetu\/fc00000091.html", "INFO": "AED：受付に1台設置。開設時間：平日８：３０～２１：００　土・日・祝・休日９：００～２１：００", "X_BLDD": 139.63237, "Y_BLDD": 35.29803, "VIEWFLG": 1 }, "geometry": { "type": "Point", "coordinates": [ 139.629157744425186, 35.301313233037895 ] } }
,
{ "type": "Feature", "properties": { "USERID": 12594, "LAYERCODE": 111996011, "LAYERNAME": "AEDステーション", "NAME": "国家公務員共済組合連合会　横須賀共済病院分院", "ADDRESS": "船越町1-8", "TEL": "046-861-3161", "FAX": null, "URL": null, "INFO": "AED：1台設置　開設時間：24時間", "X_BLDD": 139.63221, "Y_BLDD": 35.29524, "VIEWFLG": 1 }, "geometry": { "type": "Point", "coordinates": [ 139.628997719775953, 35.298523531818169 ] } }
,
{ "type": "Feature", "properties": { "USERID": 13077, "LAYERCODE": 111996011, "LAYERNAME": "AEDステーション", "NAME": "横須賀市立ハイランド保育園", "ADDRESS": "ハイランド２－１２－１７", "TEL": "046-849-3833", "FAX": null, "URL": null, "INFO": "ＡＥＤ：事務室に1台設置。開設時間：平日７：00～19：00・土曜７：30～16：00", "X_BLDD": 139.687658, "Y_BLDD": 35.216636, "VIEWFLG": 1 }, "geometry": { "type": "Point", "coordinates": [ 139.684440282110955, 35.219927406267928 ] } }
,
{ "type": "Feature", "properties": { "USERID": 13078, "LAYERCODE": 111996011, "LAYERNAME": "AEDステーション", "NAME": "横須賀市立津久井保育園", "ADDRESS": "津久井２－１４－２２", "TEL": "046-849-1747", "FAX": null, "URL": null, "INFO": "AED：事務室に1台設置。開設時間：平日７：00～19：00・土曜７：30～16：00", "X_BLDD": 139.672419, "Y_BLDD": 35.196637, "VIEWFLG": 1 }, "geometry": { "type": "Point", "coordinates": [ 139.669202218438556, 35.199930674008435 ] } }
,
{ "type": "Feature", "properties": { "USERID": 12509, "LAYERCODE": 111996011, "LAYERNAME": "AEDステーション", "NAME": "京急大津駅", "ADDRESS": "横須賀市大津町1-11-19", "TEL": "046-836-1722", "FAX": null, "URL": null, "INFO": "AED:コンコースに1台設置　開設時間　5：03～翌0：41", "X_BLDD": 139.6988, "Y_BLDD": 35.25776, "VIEWFLG": 1 }, "geometry": { "type": "Point", "coordinates": [ 139.695581952712928, 35.261046925746427 ] } }
,
{ "type": "Feature", "properties": { "USERID": 12559, "LAYERCODE": 111996011, "LAYERNAME": "AEDステーション", "NAME": "一般財団法人　電力中央研究所", "ADDRESS": "横須賀市長坂２－６－１", "TEL": null, "FAX": null, "URL": null, "INFO": null, "X_BLDD": 139.62516, "Y_BLDD": 35.22197, "VIEWFLG": 1 }, "geometry": { "type": "Point", "coordinates": [ 139.62194729596817, 35.225261402879582 ] } }
,
{ "type": "Feature", "properties": { "USERID": 12529, "LAYERCODE": 111996011, "LAYERNAME": "AEDステーション", "NAME": "三浦藤沢信用金庫　大津支店", "ADDRESS": "横須賀市大津町２－１４－２１", "TEL": "046-834-2288", "FAX": null, "URL": null, "INFO": "AED:カウンター内に1台設置　開設時間　平日9：00～15：00", "X_BLDD": 139.69995, "Y_BLDD": 35.25761, "VIEWFLG": 1 }, "geometry": { "type": "Point", "coordinates": [ 139.696731859790646, 35.260896931358445 ] } }
,
{ "type": "Feature", "properties": { "USERID": 12322, "LAYERCODE": 111996011, "LAYERNAME": "AEDステーション", "NAME": "中央斎場", "ADDRESS": "坂本町6-18", "TEL": "046-823-3809", "FAX": null, "URL": "http:\/\/www.city.yokosuka.kanagawa.jp\/3110\/sisetu\/fc00000081.html", "INFO": "AED設置場所：①事務室②2階給湯室　開設時間：8：30～17：15（友引及び1月1日～1月3日を除く）", "X_BLDD": 139.65229, "Y_BLDD": 35.26748, "VIEWFLG": 1 }, "geometry": { "type": "Point", "coordinates": [ 139.649075760314417, 35.27076630929254 ] } }
,
{ "type": "Feature", "properties": { "USERID": 12561, "LAYERCODE": 111996011, "LAYERNAME": "AEDステーション", "NAME": "横須賀ドライビングスクール", "ADDRESS": "横須賀市舟倉１－１６－１", "TEL": "046-836-8000", "FAX": null, "URL": null, "INFO": "AED：校舎内1階ロビーに1台設置　開設時間　火～土曜8：45～20：00　　　　　　　日・祝日8：45～17：00", "X_BLDD": 139.70315, "Y_BLDD": 35.23414, "VIEWFLG": 1 }, "geometry": { "type": "Point", "coordinates": [ 139.699931292211232, 35.237429402158767 ] } }
,
{ "type": "Feature", "properties": { "USERID": 13003, "LAYERCODE": 111996011, "LAYERNAME": "AEDステーション", "NAME": "高宮小児科", "ADDRESS": "根岸町4-3-20", "TEL": null, "FAX": null, "URL": null, "INFO": null, "X_BLDD": 139.681367, "Y_BLDD": 35.249982, "VIEWFLG": 1 }, "geometry": { "type": "Point", "coordinates": [ 139.678150226740854, 35.253269911389637 ] } }
,
{ "type": "Feature", "properties": { "USERID": 12658, "LAYERCODE": 111996011, "LAYERNAME": "AEDステーション", "NAME": "横須賀ＹＭＣＡ", "ADDRESS": "根岸町3-15", "TEL": "046-834-5811", "FAX": null, "URL": null, "INFO": "AED：2階事務室に1台設置　開設時間　8：30～21：00", "X_BLDD": 139.68793, "Y_BLDD": 35.2468, "VIEWFLG": 1 }, "geometry": { "type": "Point", "coordinates": [ 139.684712665204898, 35.250088191137515 ] } }
,
{ "type": "Feature", "properties": { "USERID": 13204, "LAYERCODE": 111996011, "LAYERNAME": "AEDステーション", "NAME": "西部腎クリニック", "ADDRESS": "長坂3-8-9", "TEL": "046-857-6117", "FAX": null, "URL": null, "INFO": "AED：3階透析質に1台設置。　開設時間：8:00～17:00（日曜を除く）", "X_BLDD": 139.630358, "Y_BLDD": 35.222016, "VIEWFLG": 1 }, "geometry": { "type": "Point", "coordinates": [ 139.627144885453248, 35.225307351016433 ] } }
,
{ "type": "Feature", "properties": { "USERID": 12503, "LAYERCODE": 111996011, "LAYERNAME": "AEDステーション", "NAME": "京急安針塚駅", "ADDRESS": "横須賀市長浦町2-32", "TEL": "046-822-5907", "FAX": null, "URL": null, "INFO": "AED改札内コンコースに1台設置　開設時間　5：05～翌0：24", "X_BLDD": 139.64624, "Y_BLDD": 35.28316, "VIEWFLG": 1 }, "geometry": { "type": "Point", "coordinates": [ 139.643026448623118, 35.286444692992852 ] } }
,
{ "type": "Feature", "properties": { "USERID": 12588, "LAYERCODE": 111996011, "LAYERNAME": "AEDステーション", "NAME": "シーアイマンション久里浜", "ADDRESS": "横須賀市根岸町3－1－5", "TEL": "046-836-0318", "FAX": null, "URL": null, "INFO": null, "X_BLDD": 139.6882, "Y_BLDD": 35.24959, "VIEWFLG": 1 }, "geometry": { "type": "Point", "coordinates": [ 139.684982681252279, 35.252877891526488 ] } }
,
{ "type": "Feature", "properties": { "USERID": 12382, "LAYERCODE": 111996011, "LAYERNAME": "AEDステーション", "NAME": "リサイクルプラザ", "ADDRESS": "浦郷町5-2931-71", "TEL": "046-866-1196", "FAX": null, "URL": "http:\/\/www.city.yokosuka.kanagawa.jp\/4250\/sisetu\/fc00000022.html", "INFO": "AED：1階事務室に1台設置。開設時間：原則月曜日を除く8:30～17:00　備考：休館日カレンダーはこちらをご参照ください。http:\/\/www.city.yokosuka.kanagawa.jp\/4250\/aicle\/kyuukanbi2010.html", "X_BLDD": 139.64894, "Y_BLDD": 35.3096, "VIEWFLG": 1 }, "geometry": { "type": "Point", "coordinates": [ 139.645726588632982, 35.312881851168939 ] } }
,
{ "type": "Feature", "properties": { "USERID": 12592, "LAYERCODE": 111996011, "LAYERNAME": "AEDステーション", "NAME": "湘南学院高等学校グラウンド", "ADDRESS": "佐原2-36-5", "TEL": "046-830-5571", "FAX": null, "URL": null, "INFO": "AED：クラブハウス内に1台設置　開設時間　7：00～19：00", "X_BLDD": 139.68937, "Y_BLDD": 35.24017, "VIEWFLG": 1 }, "geometry": { "type": "Point", "coordinates": [ 139.686152462476855, 35.243458884320674 ] } }
,
{ "type": "Feature", "properties": { "USERID": 12932, "LAYERCODE": 111996011, "LAYERNAME": "AEDステーション", "NAME": "湘南菱油（株）エコ久里浜SS", "ADDRESS": "内川新田1088-1", "TEL": "046-835-0825", "FAX": null, "URL": null, "INFO": "AED：販売室に1台設置　開設時間7：00～20：00", "X_BLDD": 139.698355, "Y_BLDD": 35.229306, "VIEWFLG": 1 }, "geometry": { "type": "Point", "coordinates": [ 139.695136606435995, 35.232595960270274 ] } }
,
{ "type": "Feature", "properties": { "USERID": 12666, "LAYERCODE": 111996011, "LAYERNAME": "AEDステーション", "NAME": "衣笠ヘルスケア歯科・矯正歯科", "ADDRESS": "衣笠栄町1-40", "TEL": "046-853-8026", "FAX": null, "URL": null, "INFO": "AED待合室に1台設置　開設時間　10：00～18：00", "X_BLDD": 139.66801, "Y_BLDD": 35.25427, "VIEWFLG": 1 }, "geometry": { "type": "Point", "coordinates": [ 139.664794340311545, 35.257557575035655 ] } }
,
{ "type": "Feature", "properties": { "USERID": 12956, "LAYERCODE": 111996011, "LAYERNAME": "AEDステーション", "NAME": "横須賀市営公園墓地", "ADDRESS": "大矢部6-1033", "TEL": "046-834-7484", "FAX": null, "URL": null, "INFO": "ＡＥＤ：事務所に1台設置。開設時間：8:30～17:00（年末年始を除く）", "X_BLDD": 139.666622, "Y_BLDD": 35.232909, "VIEWFLG": 1 }, "geometry": { "type": "Point", "coordinates": [ 139.663406163717013, 35.236198863059407 ] } }
,
{ "type": "Feature", "properties": { "USERID": 12308, "LAYERCODE": 111996011, "LAYERNAME": "AEDステーション", "NAME": "逸見行政センター", "ADDRESS": "東逸見町2-29", "TEL": "046-822-2575", "FAX": null, "URL": "http:\/\/www.city.yokosuka.kanagawa.jp\/2484\/sisetu\/fc00000090.html", "INFO": "AED：受付に１台設置。　開設時間：8：30～21：00（年末年始を除く）", "X_BLDD": 139.65614, "Y_BLDD": 35.27697, "VIEWFLG": 1 }, "geometry": { "type": "Point", "coordinates": [ 139.652925582900338, 35.280255263489146 ] } }
,
{ "type": "Feature", "properties": { "USERID": 12562, "LAYERCODE": 111996011, "LAYERNAME": "AEDステーション", "NAME": "山嵜内科クリニック　　（三笠ハイツ１階）", "ADDRESS": "横須賀市小川町２３－１", "TEL": "046-826-3696", "FAX": null, "URL": null, "INFO": "AED検査室に1台設置。開設時間　木曜を除く平日9：00～18：00　土曜9：00～12：00", "X_BLDD": 139.67544, "Y_BLDD": 35.28048, "VIEWFLG": 1 }, "geometry": { "type": "Point", "coordinates": [ 139.672224103782128, 35.283764715849543 ] } }
,
{ "type": "Feature", "properties": { "USERID": 12909, "LAYERCODE": 111996011, "LAYERNAME": "AEDステーション", "NAME": "独立行政法人　海洋研究開発機構", "ADDRESS": "夏島町2-15", "TEL": "046-866-3811", "FAX": null, "URL": null, "INFO": "AED設置場所：①食堂②玄関受付③健康管理室　開設時間　平日8：30～17：30", "X_BLDD": 139.65229, "Y_BLDD": 35.31703, "VIEWFLG": 1 }, "geometry": { "type": "Point", "coordinates": [ 139.649076422984393, 35.320311029281719 ] } }
,
{ "type": "Feature", "properties": { "USERID": 13017, "LAYERCODE": 111996011, "LAYERNAME": "AEDステーション", "NAME": "竹内医院", "ADDRESS": "津久井2-2-23", "TEL": "046-848-0026", "FAX": null, "URL": null, "INFO": "AED：診察室に1台設置　開設時間　平日（水曜除く）9:00～16:00（12:00～14:00を除く）　　　　　　　土曜9:00～12:00", "X_BLDD": 139.671945, "Y_BLDD": 35.194252, "VIEWFLG": 1 }, "geometry": { "type": "Point", "coordinates": [ 139.668728223873671, 35.197545932301153 ] } }
,
{ "type": "Feature", "properties": { "USERID": 12554, "LAYERCODE": 111996011, "LAYERNAME": "AEDステーション", "NAME": "ダイエー　横須賀店", "ADDRESS": "横須賀市本町2-1-12", "TEL": "046-827-4711", "FAX": null, "URL": null, "INFO": "AED：警備室1階・2階に各1台設置　開設時間　営業時間内", "X_BLDD": 139.6654, "Y_BLDD": 35.2799, "VIEWFLG": 1 }, "geometry": { "type": "Point", "coordinates": [ 139.662184889879029, 35.283184867979557 ] } }
,
{ "type": "Feature", "properties": { "USERID": 12991, "LAYERCODE": 111996011, "LAYERNAME": "AEDステーション", "NAME": "フロムワン付属診療所", "ADDRESS": "公郷町3-68-3", "TEL": "046-876-8780", "FAX": null, "URL": null, "INFO": "AED処置室に1台設置。　開設時間　月～土曜（水曜を除く）8：30～18：00　　　　　　　祝日8：30～13：00", "X_BLDD": 139.676008, "Y_BLDD": 35.254726, "VIEWFLG": 1 }, "geometry": { "type": "Point", "coordinates": [ 139.672791714023901, 35.258013454361731 ] } }
,
{ "type": "Feature", "properties": { "USERID": 12983, "LAYERCODE": 111996011, "LAYERNAME": "AEDステーション", "NAME": "横須賀クリニック", "ADDRESS": "小川町24-4", "TEL": "046-825-8811", "FAX": null, "URL": null, "INFO": "AED：2階透析室に1台設置。開設時間：（月・水・金）8：00～17：00（火・木・土）8：00～16：30", "X_BLDD": 139.67513, "Y_BLDD": 35.279779, "VIEWFLG": 1 }, "geometry": { "type": "Point", "coordinates": [ 139.671917118674799, 35.283063793295284 ] } }
,
{ "type": "Feature", "properties": { "USERID": 13035, "LAYERCODE": 111996011, "LAYERNAME": "AEDステーション", "NAME": "ﾌﾟﾗｰｼﾞｭ・ｼｪﾙ湘南長沢", "ADDRESS": "長沢1-30-8", "TEL": "046-847-2102", "FAX": null, "URL": null, "INFO": "AED：玄関ホールに1台設置　開設時間　24時間", "X_BLDD": 139.67713, "Y_BLDD": 35.201146, "VIEWFLG": 1 }, "geometry": { "type": "Point", "coordinates": [ 139.673912906514573, 35.204439151163569 ] } }
,
{ "type": "Feature", "properties": { "USERID": 12513, "LAYERCODE": 111996011, "LAYERNAME": "AEDステーション", "NAME": "京急北久里浜駅", "ADDRESS": "横須賀市根岸町2-29-1", "TEL": "046-836-1418", "FAX": null, "URL": null, "INFO": "AED:上りホーム改札口付近に1台設置　開設時間　4：50～翌1：00", "X_BLDD": 139.68955, "Y_BLDD": 35.24584, "VIEWFLG": 1 }, "geometry": { "type": "Point", "coordinates": [ 139.686332524258859, 35.249128278777832 ] } }
,
{ "type": "Feature", "properties": { "USERID": 12989, "LAYERCODE": 111996011, "LAYERNAME": "AEDステーション", "NAME": "富永整形外科", "ADDRESS": "公郷町1-55-1", "TEL": "046-852-7711", "FAX": null, "URL": null, "INFO": "AED:診察室に1台設置　　開設時間　（月・火・金）8：30～19：00　　　　　　　（水・土）8：30～12：00", "X_BLDD": 139.677102, "Y_BLDD": 35.251129, "VIEWFLG": 1 }, "geometry": { "type": "Point", "coordinates": [ 139.673885579326765, 35.254416827667313 ] } }
,
{ "type": "Feature", "properties": { "USERID": 12304, "LAYERCODE": 111996011, "LAYERNAME": "AEDステーション", "NAME": "横須賀市文化会館", "ADDRESS": "深田台50", "TEL": "046-823-2950", "FAX": null, "URL": "http:\/\/www.city.yokosuka.kanagawa.jp\/0130\/sisetu\/fc00000024.html", "INFO": "AED：事務棟1階正面玄関に1台設置。開設時間：9：00～19：00（毎週水曜日※祝日の場合はその翌日、年末年始を除く）", "X_BLDD": 139.67521, "Y_BLDD": 35.27145, "VIEWFLG": 1 }, "geometry": { "type": "Point", "coordinates": [ 139.671994001103286, 35.274735679943213 ] } }
,
{ "type": "Feature", "properties": { "USERID": 12515, "LAYERCODE": 111996011, "LAYERNAME": "AEDステーション", "NAME": "京急ＹＲＰ野比駅", "ADDRESS": "横須賀市野比1-9-1", "TEL": "046-848-1844", "FAX": null, "URL": null, "INFO": "AED:コンコース内に1台設置　開設時間　4：50～翌0：40", "X_BLDD": 139.68856, "Y_BLDD": 35.20955, "VIEWFLG": 1 }, "geometry": { "type": "Point", "coordinates": [ 139.685342115666259, 35.212842152755094 ] } }
,
{ "type": "Feature", "properties": { "USERID": 12630, "LAYERCODE": 111996011, "LAYERNAME": "AEDステーション", "NAME": "パチンコ　夢球殿追浜店", "ADDRESS": "追浜本町1-40", "TEL": "046-865-6131", "FAX": null, "URL": null, "INFO": "AED景品カウンターに1台設置　　開設時間　9：00～22：45", "X_BLDD": 139.63152, "Y_BLDD": 35.3135, "VIEWFLG": 1 }, "geometry": { "type": "Point", "coordinates": [ 139.628308018402635, 35.316781591894149 ] } }
,
{ "type": "Feature", "properties": { "USERID": 12569, "LAYERCODE": 111996011, "LAYERNAME": "AEDステーション", "NAME": "東邦化学工業（株）追浜工場", "ADDRESS": "横須賀市浦郷町５－２９３１", "TEL": "046-865-8191", "FAX": null, "URL": null, "INFO": "AED工場正門に1台設置　開設時間　24時間", "X_BLDD": 139.64164, "Y_BLDD": 35.30933, "VIEWFLG": 1 }, "geometry": { "type": "Point", "coordinates": [ 139.638427162326167, 35.312611945483425 ] } }
,
{ "type": "Feature", "properties": { "USERID": 13123, "LAYERCODE": 111996011, "LAYERNAME": "AEDステーション", "NAME": "渕上内科・消化器科クリニック", "ADDRESS": "太田和1-1-8　3階", "TEL": "046-855-0565", "FAX": null, "URL": null, "INFO": "AED：今井ウィメンズクリニックと共有　開設時間　平日（水を除く）9：00～18：00（12：00～14：30を除く）　　　　　　　土曜9：00～12：00", "X_BLDD": 139.6377, "Y_BLDD": 35.216382, "VIEWFLG": 1 }, "geometry": { "type": "Point", "coordinates": [ 139.634489228923883, 35.219673884866033 ] } }
,
{ "type": "Feature", "properties": { "USERID": 13033, "LAYERCODE": 111996011, "LAYERNAME": "AEDステーション", "NAME": "自衛隊横須賀病院", "ADDRESS": "田浦港町1766-1", "TEL": null, "FAX": null, "URL": null, "INFO": "①　1階から4階各エレベーターホール　②　内視鏡室", "X_BLDD": 139.638448, "Y_BLDD": 35.290511, "VIEWFLG": 1 }, "geometry": { "type": "Point", "coordinates": [ 139.635235163183637, 35.29379497971896 ] } }
,
{ "type": "Feature", "properties": { "USERID": 12657, "LAYERCODE": 111996011, "LAYERNAME": "AEDステーション", "NAME": "リハビリデイセンター悠", "ADDRESS": "根岸町4-13-6", "TEL": "046-838-1415", "FAX": null, "URL": null, "INFO": "AED：機能訓練室兼食堂に1台設置　開設時間8：30～17：30", "X_BLDD": 139.68306, "Y_BLDD": 35.2523, "VIEWFLG": 1 }, "geometry": { "type": "Point", "coordinates": [ 139.679843123948444, 35.255587649211051 ] } }
,
{ "type": "Feature", "properties": { "USERID": 12507, "LAYERCODE": 111996011, "LAYERNAME": "AEDステーション", "NAME": "京急県立大学駅", "ADDRESS": "横須賀市安浦町2-28", "TEL": "046-822-5534", "FAX": null, "URL": null, "INFO": "AED改札口内に1台設置　開設時間　4：59～0：31（全日）", "X_BLDD": 139.68049, "Y_BLDD": 35.26628, "VIEWFLG": 1 }, "geometry": { "type": "Point", "coordinates": [ 139.677273514412633, 35.269566183163064 ] } }
,
{ "type": "Feature", "properties": { "USERID": 12598, "LAYERCODE": 111996011, "LAYERNAME": "AEDステーション", "NAME": "イオン横須賀久里浜ショッピングセンター　イオン久里浜店", "ADDRESS": "久里浜5-13-1", "TEL": "046-838-5200", "FAX": null, "URL": null, "INFO": "AED設置場所：①1階エレベーター前②1階防災センター　※開設時間は季節により異なります。", "X_BLDD": 139.70746, "Y_BLDD": 35.22571, "VIEWFLG": 1 }, "geometry": { "type": "Point", "coordinates": [ 139.704240838408424, 35.22900026098403 ] } }
,
{ "type": "Feature", "properties": { "USERID": 12543, "LAYERCODE": 111996011, "LAYERNAME": "AEDステーション", "NAME": "湘南菱油（株）セルフ134久里浜SS", "ADDRESS": "横須賀市久里浜３－１０－１０", "TEL": "046-835-9733", "FAX": null, "URL": null, "INFO": "AED：サービスルーム内に1台設置　開設時間　24時間", "X_BLDD": 139.70314, "Y_BLDD": 35.22276, "VIEWFLG": 1 }, "geometry": { "type": "Point", "coordinates": [ 139.699921140329423, 35.226050614165466 ] } }
,
{ "type": "Feature", "properties": { "USERID": 12512, "LAYERCODE": 111996011, "LAYERNAME": "AEDステーション", "NAME": "京急新大津駅", "ADDRESS": "横須賀市大津町4-7-1", "TEL": "046-836-0487", "FAX": null, "URL": null, "INFO": "AED：コンコース内に1台設置　開設時間　4：50～翌1：00", "X_BLDD": 139.69332, "Y_BLDD": 35.25379, "VIEWFLG": 1 }, "geometry": { "type": "Point", "coordinates": [ 139.690102332751053, 35.257077398000263 ] } }
,
{ "type": "Feature", "properties": { "USERID": 12578, "LAYERCODE": 111996011, "LAYERNAME": "AEDステーション", "NAME": "国家公務員組合連合会　横須賀共済病院", "ADDRESS": "横須賀市米が浜通1-16", "TEL": "046-822-2710", "FAX": null, "URL": null, "INFO": "【AED設置場所】①生理検査室②外来棟1階③外来棟2階④RI室⑤C棟2階⑥A棟1階～9階の各階⑦リハビリ外来⑧ME科【開設時間】平日8：30～17：15", "X_BLDD": 139.67757, "Y_BLDD": 35.27341, "VIEWFLG": 1 }, "geometry": { "type": "Point", "coordinates": [ 139.6743538407448, 35.276695449890056 ] } }
,
{ "type": "Feature", "properties": { "USERID": 12595, "LAYERCODE": 111996011, "LAYERNAME": "AEDステーション", "NAME": "石橋クリニック", "ADDRESS": "池田町5-8-11　高橋ビル2階", "TEL": "046-837-3233", "FAX": null, "URL": null, "INFO": "AED：診察室に1台設置　開設時間　平日（水を除く）8：30～19：00（12：00～16：00を除く）　　　　　　　土日8：30～12：00", "X_BLDD": 139.6938, "Y_BLDD": 35.24155, "VIEWFLG": 1 }, "geometry": { "type": "Point", "coordinates": [ 139.690582130746918, 35.244838697363583 ] } }
,
{ "type": "Feature", "properties": { "USERID": 12587, "LAYERCODE": 111996011, "LAYERNAME": "AEDステーション", "NAME": "しざわクリニック（横須賀上町クリニックビル３Ｆ）", "ADDRESS": "横須賀市上町２－７－５", "TEL": "046-823-8551", "FAX": null, "URL": null, "INFO": "AED処置室に1台設置。開設時間　平日（水曜を除く）9：00～18：30　土曜9：00～12：00", "X_BLDD": 139.6729, "Y_BLDD": 35.27094, "VIEWFLG": 1 }, "geometry": { "type": "Point", "coordinates": [ 139.669684176922289, 35.27422575507417 ] } }
,
{ "type": "Feature", "properties": { "USERID": 12514, "LAYERCODE": 111996011, "LAYERNAME": "AEDステーション", "NAME": "京急久里浜駅", "ADDRESS": "横須賀市久里浜4-4-10", "TEL": "046-835-0075", "FAX": null, "URL": null, "INFO": "AED：改札内コンコースに1台設置　開設時間　4：50～翌1：00", "X_BLDD": 139.70501, "Y_BLDD": 35.22798, "VIEWFLG": 1 }, "geometry": { "type": "Point", "coordinates": [ 139.701791062541588, 35.231270041377293 ] } }
,
{ "type": "Feature", "properties": { "USERID": 12972, "LAYERCODE": 111996011, "LAYERNAME": "AEDステーション", "NAME": "金成医院", "ADDRESS": "追浜東町3-22", "TEL": "046-865-5791", "FAX": null, "URL": null, "INFO": "AED診察室に1台設置　開設時間　平日9：00～19：00（12：00～16：00除く）　　　　　　　　　土曜9：00～12：00", "X_BLDD": 139.633679, "Y_BLDD": 35.31199, "VIEWFLG": 1 }, "geometry": { "type": "Point", "coordinates": [ 139.630466827475317, 35.315271733454239 ] } }
,
{ "type": "Feature", "properties": { "USERID": 12527, "LAYERCODE": 111996011, "LAYERNAME": "AEDステーション", "NAME": "三浦藤沢信用金庫　久里浜支店", "ADDRESS": "横須賀市久里浜４－５－１０", "TEL": "046-834-2244", "FAX": null, "URL": null, "INFO": "AED：通用口脇に1台設置　開設時間　平日9：00～15：00", "X_BLDD": 139.70524, "Y_BLDD": 35.2267, "VIEWFLG": 1 }, "geometry": { "type": "Point", "coordinates": [ 139.702021027186305, 35.229990175611377 ] } }
,
{ "type": "Feature", "properties": { "USERID": 12990, "LAYERCODE": 111996011, "LAYERNAME": "AEDステーション", "NAME": "船山医院", "ADDRESS": "上町2-18", "TEL": null, "FAX": null, "URL": null, "INFO": null, "X_BLDD": 139.673104, "Y_BLDD": 35.269627, "VIEWFLG": 1 }, "geometry": { "type": "Point", "coordinates": [ 139.669888143213456, 35.272912893118011 ] } }
,
{ "type": "Feature", "properties": { "USERID": 12524, "LAYERCODE": 111996011, "LAYERNAME": "AEDステーション", "NAME": "三浦藤沢信用金庫　栄町出張所", "ADDRESS": "横須賀市衣笠栄町２－２６", "TEL": "046-853-1515", "FAX": null, "URL": null, "INFO": "AED入り口付近に1台設置　開設時間　平日9：00～15：00", "X_BLDD": 139.66518, "Y_BLDD": 35.25479, "VIEWFLG": 1 }, "geometry": { "type": "Point", "coordinates": [ 139.661964571053289, 35.258077545149504 ] } }
,
{ "type": "Feature", "properties": { "USERID": 12539, "LAYERCODE": 111996011, "LAYERNAME": "AEDステーション", "NAME": "湘南菱油（株）リプレ岩戸SS", "ADDRESS": "横須賀市岩戸１－１２－２", "TEL": "046-834-1087", "FAX": null, "URL": null, "INFO": "AED：コミュニティールームに1台設置　開設時間　7：00～20：00", "X_BLDD": 139.68288, "Y_BLDD": 35.22868, "VIEWFLG": 1 }, "geometry": { "type": "Point", "coordinates": [ 139.679662821493338, 35.231970166702858 ] } }
,
{ "type": "Feature", "properties": { "USERID": 12986, "LAYERCODE": 111996011, "LAYERNAME": "AEDステーション", "NAME": "三上医院", "ADDRESS": "安浦町2-2", "TEL": null, "FAX": null, "URL": null, "INFO": null, "X_BLDD": 139.68045, "Y_BLDD": 35.269738, "VIEWFLG": 1 }, "geometry": { "type": "Point", "coordinates": [ 139.677229564193965, 35.273023815181368 ] } }
,
{ "type": "Feature", "properties": { "USERID": 12663, "LAYERCODE": 111996011, "LAYERNAME": "AEDステーション", "NAME": "杉山整骨院", "ADDRESS": "久里浜4-12-24", "TEL": "046-835-0959", "FAX": null, "URL": null, "INFO": "AED：診療所に1台設置　", "X_BLDD": 139.70664, "Y_BLDD": 35.22863, "VIEWFLG": 1 }, "geometry": { "type": "Point", "coordinates": [ 139.703420942407433, 35.231919957434087 ] } }
,
{ "type": "Feature", "properties": { "USERID": 12648, "LAYERCODE": 111996011, "LAYERNAME": "AEDステーション", "NAME": "三笠公園", "ADDRESS": "稲岡町82-14", "TEL": "046-824-6291", "FAX": null, "URL": null, "INFO": "AED：管理事務所内に１台設置。開設時間：4～10月　8:00～21:00 \/ 11～3月　9:00～20:00", "X_BLDD": 139.67713, "Y_BLDD": 35.28227, "VIEWFLG": 1 }, "geometry": { "type": "Point", "coordinates": [ 139.673913994112553, 35.285554509941058 ] } }
,
{ "type": "Feature", "properties": { "USERID": 12579, "LAYERCODE": 111996011, "LAYERNAME": "AEDステーション", "NAME": "衣笠病院", "ADDRESS": "横須賀市小矢部2-23-1", "TEL": "046-852-1490", "FAX": null, "URL": null, "INFO": "AED:1階待合ロビーに1台設置　　開設時間　24時間", "X_BLDD": 139.6646, "Y_BLDD": 35.25232, "VIEWFLG": 1 }, "geometry": { "type": "Point", "coordinates": [ 139.661384583821018, 35.255607813513137 ] } }
,
{ "type": "Feature", "properties": { "USERID": 12310, "LAYERCODE": 111996011, "LAYERNAME": "AEDステーション", "NAME": "大津行政センター", "ADDRESS": "大津町3-18-13", "TEL": "046-836-3531", "FAX": null, "URL": "http:\/\/www.city.yokosuka.kanagawa.jp\/2488\/sisetu\/fc00000088.html", "INFO": "AED：１階警備室内に１台設置　開設時間：8：30～21：00", "X_BLDD": 139.69906, "Y_BLDD": 35.25742, "VIEWFLG": 1 }, "geometry": { "type": "Point", "coordinates": [ 139.695841927603681, 35.260706959617181 ] } }
,
{ "type": "Feature", "properties": { "USERID": 12643, "LAYERCODE": 111996011, "LAYERNAME": "AEDステーション", "NAME": "さいか屋　横須賀店", "ADDRESS": "大滝町1-13", "TEL": "046-823-1234", "FAX": null, "URL": null, "INFO": "AED防災センターに1台設置。　開設時間10：00～19：00　※閉店後は防災センターで24時間対応可能。", "X_BLDD": 139.67235, "Y_BLDD": 35.27857, "VIEWFLG": 1 }, "geometry": { "type": "Point", "coordinates": [ 139.669134322540856, 35.281854947143216 ] } }
,
{ "type": "Feature", "properties": { "USERID": 12470, "LAYERCODE": 111996011, "LAYERNAME": "AEDステーション", "NAME": "中央図書館", "ADDRESS": "上町1-61", "TEL": null, "FAX": null, "URL": "http:\/\/www.city.yokosuka.kanagawa.jp\/8150\/sisetu\/fc00000374.html", "INFO": "AED:1階カウンター内に1台設置", "X_BLDD": 139.67173, "Y_BLDD": 35.2711, "VIEWFLG": 1 }, "geometry": { "type": "Point", "coordinates": [ 139.668514271574793, 35.274385748562651 ] } }
,
{ "type": "Feature", "properties": { "USERID": 12471, "LAYERCODE": 111996011, "LAYERNAME": "AEDステーション", "NAME": "児童図書館", "ADDRESS": "若松町3-20", "TEL": null, "FAX": null, "URL": "http:\/\/www.city.yokosuka.kanagawa.jp\/8150\/sisetu\/fc00000377.html", "INFO": "AED:事務室に1台設置", "X_BLDD": 139.67433, "Y_BLDD": 35.27464, "VIEWFLG": 1 }, "geometry": { "type": "Point", "coordinates": [ 139.67111411338584, 35.277925348017533 ] } }
,
{ "type": "Feature", "properties": { "USERID": 12375, "LAYERCODE": 111996011, "LAYERNAME": "AEDステーション", "NAME": "総合体育会館メインアリーナ", "ADDRESS": "不入斗町1-2", "TEL": "046-826-2800", "FAX": null, "URL": "http:\/\/www.city.yokosuka.kanagawa.jp\/8340\/sisetu\/fc00000388.html", "INFO": "AED：①１階ロビー②2階トレーニング室に設置。開設時間：9:00～21:00（休館日を除く）", "X_BLDD": 139.66706, "Y_BLDD": 35.26432, "VIEWFLG": 1 }, "geometry": { "type": "Point", "coordinates": [ 139.663844550050754, 35.267606512935281 ] } }
,
{ "type": "Feature", "properties": { "USERID": 12379, "LAYERCODE": 111996011, "LAYERNAME": "AEDステーション", "NAME": "総合体育会館サブアリーナ", "ADDRESS": "不入斗町1-2", "TEL": "046-828-5840", "FAX": null, "URL": "http:\/\/www.city.yokosuka.kanagawa.jp\/8340\/sisetu\/fc00000384.html", "INFO": "ＡＥＤ：1階ロビーに1台設置。開設時間：9:00～21:00（休館日を除く）※温水プールは9:30～21:00", "X_BLDD": 139.66694, "Y_BLDD": 35.2637, "VIEWFLG": 1 }, "geometry": { "type": "Point", "coordinates": [ 139.663724551236271, 35.266986580068604 ] } }
,
{ "type": "Feature", "properties": { "USERID": 12996, "LAYERCODE": 111996011, "LAYERNAME": "AEDステーション", "NAME": "生協衣笠診療所", "ADDRESS": "平作7-10-27", "TEL": "046-851-1062", "FAX": null, "URL": null, "INFO": "AED:待合室に1台設置　開設時間　平日9：00～17：00（火・金は19：00まで）　　　　　　　土曜9：00～13：00", "X_BLDD": 139.656031, "Y_BLDD": 35.255342, "VIEWFLG": 1 }, "geometry": { "type": "Point", "coordinates": [ 139.652816301911201, 35.258629568808892 ] } }
,
{ "type": "Feature", "properties": { "USERID": 13168, "LAYERCODE": 111996011, "LAYERNAME": "AEDステーション", "NAME": "汽船Sea　friendV(船舶)", "ADDRESS": "本町３丁目（YOKOSUKA軍港めぐり乗下船場所)他", "TEL": null, "FAX": null, "URL": null, "INFO": "AED：船舶内に1台設置　開設時間：11:00～15:45（チャータークルーズ及び荒天時を除く）", "X_BLDD": 139.664523, "Y_BLDD": 35.279988, "VIEWFLG": 1 }, "geometry": { "type": "Point", "coordinates": [ 139.661307960403263, 35.283272866494535 ] } }
,
{ "type": "Feature", "properties": { "USERID": 13074, "LAYERCODE": 111996011, "LAYERNAME": "AEDステーション", "NAME": "横須賀市立上町保育園", "ADDRESS": "佐野町1-20", "TEL": "046-822-5244", "FAX": null, "URL": null, "INFO": "AED：事務室に1台設置。開設時間：平日７：00～19：00・土曜７：30～16：00", "X_BLDD": 139.67392, "Y_BLDD": 35.264191, "VIEWFLG": 1 }, "geometry": { "type": "Point", "coordinates": [ 139.670701006140405, 35.267477464910364 ] } }
,
{ "type": "Feature", "properties": { "USERID": 12944, "LAYERCODE": 111996011, "LAYERNAME": "AEDステーション", "NAME": "長浦コミュニティーセンター", "ADDRESS": "長浦町２－45", "TEL": "046-824-3907", "FAX": null, "URL": null, "INFO": "AED：事務室内に1台設置。開設時間：9:00～21：00", "X_BLDD": 139.646464, "Y_BLDD": 35.28422, "VIEWFLG": 1 }, "geometry": { "type": "Point", "coordinates": [ 139.643250445090445, 35.287504578025462 ] } }
,
{ "type": "Feature", "properties": { "USERID": 12635, "LAYERCODE": 111996011, "LAYERNAME": "AEDステーション", "NAME": "横須賀芸術劇場", "ADDRESS": "本町3-27", "TEL": "046-828-1600", "FAX": null, "URL": "http:\/\/www.city.yokosuka.kanagawa.jp\/0130\/sisetu\/fc00000111.html", "INFO": "AED設置場所：①大劇場地下2階　②大劇場建物3階（1階ロビー）③小劇場建物4階（1階ロビー）　開設時間：10：00～19：00（毎月第2水曜日※祝祭日の場合は翌日、年末年始）", "X_BLDD": 139.66619, "Y_BLDD": 35.2782, "VIEWFLG": 1 }, "geometry": { "type": "Point", "coordinates": [ 139.662974804661786, 35.281485041995893 ] } }
,
{ "type": "Feature", "properties": { "USERID": 12616, "LAYERCODE": 111996011, "LAYERNAME": "AEDステーション", "NAME": "パチンコ アビバ横須賀中央店", "ADDRESS": "若松町1-3（第一東宝会館）", "TEL": "046-828-6660", "FAX": null, "URL": null, "INFO": "AED1階カウンターに1台設置　開設時間　9：00～22：45", "X_BLDD": 139.6738, "Y_BLDD": 35.27686, "VIEWFLG": 1 }, "geometry": { "type": "Point", "coordinates": [ 139.670584185006078, 35.28014511627547 ] } }
,
{ "type": "Feature", "properties": { "USERID": 12516, "LAYERCODE": 111996011, "LAYERNAME": "AEDステーション", "NAME": "京急長沢駅", "ADDRESS": "横須賀市長沢1-35-1", "TEL": "046-848-0233", "FAX": null, "URL": null, "INFO": "AED：改札口内に1台設置　開設時間　4：50～翌0：35", "X_BLDD": 139.67725, "Y_BLDD": 35.20229, "VIEWFLG": 1 }, "geometry": { "type": "Point", "coordinates": [ 139.674032912392647, 35.205583028242394 ] } }
,
{ "type": "Feature", "properties": { "USERID": 12601, "LAYERCODE": 111996011, "LAYERNAME": "AEDステーション", "NAME": "パチンコ　平楽", "ADDRESS": "若松町1-14", "TEL": "046-822-2816", "FAX": null, "URL": null, "INFO": "AED：カウンターに1台設置　　開設時間　9：00～23：00", "X_BLDD": 139.67425, "Y_BLDD": 35.27675, "VIEWFLG": 1 }, "geometry": { "type": "Point", "coordinates": [ 139.67103414795335, 35.280035123944657 ] } }
,
{ "type": "Feature", "properties": { "USERID": 12381, "LAYERCODE": 111996011, "LAYERNAME": "AEDステーション", "NAME": "しょうぶ園", "ADDRESS": "阿部倉18-1", "TEL": "046-853-3688", "FAX": null, "URL": "http:\/\/www.city.yokosuka.kanagawa.jp\/4130\/sisetu\/fc00000438.html", "INFO": "AED：事務室に1台設置。開設時間：５月～８月・・・午前９時～午後７時　９月～４月・・・午前９時～午後５時　○休園日　毎週月曜日（月曜日が休日の場合はその翌日・4月～6月は無休）　休日の翌日（翌日が土・日に当たる場合は開園し火曜日が休園）　年末年始（12月29日～", "X_BLDD": 139.64428, "Y_BLDD": 35.253, "VIEWFLG": 1 }, "geometry": { "type": "Point", "coordinates": [ 139.641066199816919, 35.256287924256483 ] } }
,
{ "type": "Feature", "properties": { "USERID": 12377, "LAYERCODE": 111996011, "LAYERNAME": "AEDステーション", "NAME": "南体育会館", "ADDRESS": "久里浜6-14-1", "TEL": "046-835-0780", "FAX": null, "URL": "http:\/\/www.city.yokosuka.kanagawa.jp\/8340\/sisetu\/fc00000392.html", "INFO": "ＡＥＤ：1階ロビーに1台設置。開設時間：9：00～21：00（休館日を除く）", "X_BLDD": 139.70861, "Y_BLDD": 35.22424, "VIEWFLG": 1 }, "geometry": { "type": "Point", "coordinates": [ 139.705390727775239, 35.227530407135383 ] } }
,
{ "type": "Feature", "properties": { "USERID": 12982, "LAYERCODE": 111996011, "LAYERNAME": "AEDステーション", "NAME": "ゆき呼吸器内科クリニック", "ADDRESS": "大滝町2-15　横須賀東相ビル3F", "TEL": "046-828-4159", "FAX": null, "URL": null, "INFO": "AED待合室に1台設置　　開設時間　平日10：00～19：00（13：00～15：00を除く）　　　　　　　土曜9：30～13：30", "X_BLDD": 139.673313, "Y_BLDD": 35.277954, "VIEWFLG": 1 }, "geometry": { "type": "Point", "coordinates": [ 139.670097238154, 35.281239004105366 ] } }
,
{ "type": "Feature", "properties": { "USERID": 12519, "LAYERCODE": 111996011, "LAYERNAME": "AEDステーション", "NAME": "三浦藤沢信用金庫　本店営業部", "ADDRESS": "横須賀市大滝町１－２８", "TEL": "046-825-1515", "FAX": null, "URL": null, "INFO": "AEDカウンターに1台設置　開設時間　平日9：00～15：00", "X_BLDD": 139.67176, "Y_BLDD": 35.27818, "VIEWFLG": 1 }, "geometry": { "type": "Point", "coordinates": [ 139.668544363971989, 35.281464994002995 ] } }
,
{ "type": "Feature", "properties": { "USERID": 13071, "LAYERCODE": 111996011, "LAYERNAME": "AEDステーション", "NAME": "横須賀市立船越保育園", "ADDRESS": "船越町6-69", "TEL": "046-861-3254", "FAX": null, "URL": null, "INFO": "AED：事務室に1台設置。開設時間：平日７：00～19：00・土曜７：30～16：00", "X_BLDD": 139.631554, "Y_BLDD": 35.29793, "VIEWFLG": 1 }, "geometry": { "type": "Point", "coordinates": [ 139.628341807625532, 35.301213251027434 ] } }
,
{ "type": "Feature", "properties": { "USERID": 13070, "LAYERCODE": 111996011, "LAYERNAME": "AEDステーション", "NAME": "横須賀市立追浜保育園", "ADDRESS": "追浜本町２－１", "TEL": "046-865-3502", "FAX": null, "URL": null, "INFO": "AED：事務室に1台設置。開設時間：平日７：00～19：00・土曜７：30～16：00", "X_BLDD": 139.632792, "Y_BLDD": 35.316321, "VIEWFLG": 1 }, "geometry": { "type": "Point", "coordinates": [ 139.629579955486406, 35.319602279807448 ] } }
,
{ "type": "Feature", "properties": { "USERID": 12526, "LAYERCODE": 111996011, "LAYERNAME": "AEDステーション", "NAME": "三浦藤沢信用金庫　粟田支店", "ADDRESS": "横須賀市粟田１－４２－１０", "TEL": "046-848-5333", "FAX": null, "URL": null, "INFO": "AEDロビーに1台設置。　開設時間　平日9：00～15：00", "X_BLDD": 139.68503, "Y_BLDD": 35.22547, "VIEWFLG": 1 }, "geometry": { "type": "Point", "coordinates": [ 139.681812608440396, 35.228760489170952 ] } }
,
{ "type": "Feature", "properties": { "USERID": 12533, "LAYERCODE": 111996011, "LAYERNAME": "AEDステーション", "NAME": "三浦藤沢信用金庫　池上支店", "ADDRESS": "横須賀市池上４－１－１２", "TEL": "046-853-2222", "FAX": null, "URL": null, "INFO": "AED営業場内に1台設置　開設時間　平日9：00～15：00", "X_BLDD": 139.65054, "Y_BLDD": 35.2605, "VIEWFLG": 1 }, "geometry": { "type": "Point", "coordinates": [ 139.647325805230878, 35.263787068748684 ] } }
,
{ "type": "Feature", "properties": { "USERID": 13009, "LAYERCODE": 111996011, "LAYERNAME": "AEDステーション", "NAME": "久里浜横井クリニック", "ADDRESS": "舟倉1-30-12", "TEL": "046-833-6133", "FAX": null, "URL": null, "INFO": "AED：処置室に1台設置　開設時間　（月・火・水・金）8：30～18：00（12：00～14：30を除く）　　　　　　　（木・土）8：30～12：00", "X_BLDD": 139.704339, "Y_BLDD": 35.232174, "VIEWFLG": 1 }, "geometry": { "type": "Point", "coordinates": [ 139.70112017184772, 35.235463600796756 ] } }
,
{ "type": "Feature", "properties": { "USERID": 13075, "LAYERCODE": 111996011, "LAYERNAME": "AEDステーション", "NAME": "横須賀市立森崎保育園", "ADDRESS": "森崎3-8-1", "TEL": "046-836-6871", "FAX": null, "URL": null, "INFO": "ＡＥＤ：事務室に1台設置。開設時間：平日７：00～19：00・土曜７：30～16：00", "X_BLDD": 139.681102, "Y_BLDD": 35.243301, "VIEWFLG": 1 }, "geometry": { "type": "Point", "coordinates": [ 139.677885158143624, 35.246589625429216 ] } }
,
{ "type": "Feature", "properties": { "USERID": 12537, "LAYERCODE": 111996011, "LAYERNAME": "AEDステーション", "NAME": "湘南菱油（株）大矢部SS", "ADDRESS": "横須賀市大矢部５－１２－１", "TEL": "046-836-9212", "FAX": null, "URL": null, "INFO": "AEDコミュニティルームに1台設置　　開設時間　7：00～20：00", "X_BLDD": 139.67291, "Y_BLDD": 35.23718, "VIEWFLG": 1 }, "geometry": { "type": "Point", "coordinates": [ 139.669693723794069, 35.240469351349212 ] } }
,
{ "type": "Feature", "properties": { "USERID": 13073, "LAYERCODE": 111996011, "LAYERNAME": "AEDステーション", "NAME": "横須賀市立鶴が丘保育園", "ADDRESS": "鶴が丘2-3-1", "TEL": "046-824-6282", "FAX": null, "URL": null, "INFO": "AED：事務室に1台設置。開設時間：平日７：00～19：00・土曜７：30～16：00", "X_BLDD": 139.661901, "Y_BLDD": 35.262253, "VIEWFLG": 1 }, "geometry": { "type": "Point", "coordinates": [ 139.658685930307314, 35.265539779622877 ] } }
,
{ "type": "Feature", "properties": { "USERID": 12988, "LAYERCODE": 111996011, "LAYERNAME": "AEDステーション", "NAME": "妹尾内科医院", "ADDRESS": "公郷町1-58-4", "TEL": "046-853-9092", "FAX": null, "URL": null, "INFO": "AED診察室に1台設置　開設時間　平日8：30～18：00（水曜除く）　　　　　　　　土曜8：30～12：00", "X_BLDD": 139.678652, "Y_BLDD": 35.250516, "VIEWFLG": 1 }, "geometry": { "type": "Point", "coordinates": [ 139.675435448559199, 35.253803878989473 ] } }
,
{ "type": "Feature", "properties": { "USERID": 12505, "LAYERCODE": 111996011, "LAYERNAME": "AEDステーション", "NAME": "京急汐入駅", "ADDRESS": "横須賀市汐入町2-41", "TEL": "046-823-1449", "FAX": null, "URL": null, "INFO": "AED改札内正面階段の右横に1台設置　開設時間　平日　　（5：02～0：50）　　　　　　　土・休日（5：02～0：28）", "X_BLDD": 139.66556, "Y_BLDD": 35.27687, "VIEWFLG": 1 }, "geometry": { "type": "Point", "coordinates": [ 139.662344836677164, 35.280155189368003 ] } }
,
{ "type": "Feature", "properties": { "USERID": 12528, "LAYERCODE": 111996011, "LAYERNAME": "AEDステーション", "NAME": "三浦藤沢信用金庫　北久里浜支店", "ADDRESS": "横須賀市根岸町２－２１－１４", "TEL": "046-834-2266", "FAX": null, "URL": null, "INFO": "AED 通用口脇に1台設置　開設時間　平日9：00～15：00", "X_BLDD": 139.68916, "Y_BLDD": 35.24688, "VIEWFLG": 1 }, "geometry": { "type": "Point", "coordinates": [ 139.685942569032534, 35.250168171522169 ] } }
,
{ "type": "Feature", "properties": { "USERID": 12624, "LAYERCODE": 111996011, "LAYERNAME": "AEDステーション", "NAME": "パチンコ　横須賀マリーン", "ADDRESS": "大津町1-22-8", "TEL": "046-824-5333", "FAX": null, "URL": null, "INFO": "AED：1台設置　開設時間　9：00～22：50", "X_BLDD": 139.69888, "Y_BLDD": 35.26146, "VIEWFLG": 1 }, "geometry": { "type": "Point", "coordinates": [ 139.695661995953117, 35.264746530926885 ] } }
,
{ "type": "Feature", "properties": { "USERID": 13072, "LAYERCODE": 111996011, "LAYERNAME": "AEDステーション", "NAME": "横須賀市立逸見保育園", "ADDRESS": "西逸見町１－３７", "TEL": "046-822-2959", "FAX": null, "URL": null, "INFO": "AED：事務室に1台設置。開設時間：平日７：00～19：00・土曜７：30～16：00", "X_BLDD": 139.65476, "Y_BLDD": 35.280025, "VIEWFLG": 1 }, "geometry": { "type": "Point", "coordinates": [ 139.651543733069502, 35.283309950413006 ] } }
,
{ "type": "Feature", "properties": { "USERID": 12564, "LAYERCODE": 111996011, "LAYERNAME": "AEDステーション", "NAME": "（株）東急スポーツオアシス横須賀店", "ADDRESS": "横須賀市平成町２－１４－１(VISPO横須賀3階）", "TEL": "046-820-0109", "FAX": null, "URL": null, "INFO": "AED設置場所　①フロント　②プールサイド　開設時間　平日10：00～23：00（水曜を除く）　土曜10：00～22：00　　　　　　　　日曜祝日10：00～20：00", "X_BLDD": 139.68564, "Y_BLDD": 35.27057, "VIEWFLG": 1 }, "geometry": { "type": "Point", "coordinates": [ 139.682423164680017, 35.273855679780873 ] } }
,
{ "type": "Feature", "properties": { "USERID": 12971, "LAYERCODE": 111996011, "LAYERNAME": "AEDステーション", "NAME": "今井内科大腸肛門科クリニック", "ADDRESS": "追浜本町1-28-5　ｻﾝﾋﾞｰﾁ追浜4F", "TEL": "046-869-3038", "FAX": null, "URL": null, "INFO": "AED1台設置", "X_BLDD": 139.62902, "Y_BLDD": 35.313049, "VIEWFLG": 1 }, "geometry": { "type": "Point", "coordinates": [ 139.625808210103173, 35.316330662401775 ] } }
,
{ "type": "Feature", "properties": { "USERID": 12510, "LAYERCODE": 111996011, "LAYERNAME": "AEDステーション", "NAME": "京急馬堀海岸駅", "ADDRESS": "横須賀市馬堀町3-20-1", "TEL": "046-841-0723", "FAX": null, "URL": null, "INFO": "AED：コンコースに１台設置　開設時間　5:02～翌0:43", "X_BLDD": 139.7104, "Y_BLDD": 35.25618, "VIEWFLG": 1 }, "geometry": { "type": "Point", "coordinates": [ 139.707181014544688, 35.2594669894738 ] } }
,
{ "type": "Feature", "properties": { "USERID": 12530, "LAYERCODE": 111996011, "LAYERNAME": "AEDステーション", "NAME": "三浦藤沢信用金庫　上町支店", "ADDRESS": "横須賀市上町２－３－２５", "TEL": "046-822-1515", "FAX": null, "URL": null, "INFO": "AED：事務室に1台設置　開設時間　平日9：00～15：00", "X_BLDD": 139.67362, "Y_BLDD": 35.27065, "VIEWFLG": 1 }, "geometry": { "type": "Point", "coordinates": [ 139.670404116110575, 35.273935779486685 ] } }
,
{ "type": "Feature", "properties": { "USERID": 12504, "LAYERCODE": 111996011, "LAYERNAME": "AEDステーション", "NAME": "京急逸見駅", "ADDRESS": "横須賀市東逸見町2-18", "TEL": "046-822-5625", "FAX": null, "URL": null, "INFO": "AED改札内自動精算機横に1台設置　開設時間　5：03～翌0：26　※平成24年12月1日～工事に伴う設置場所変更の予定。", "X_BLDD": 139.65648, "Y_BLDD": 35.27718, "VIEWFLG": 1 }, "geometry": { "type": "Point", "coordinates": [ 139.653265558824586, 35.280465238054006 ] } }
,
{ "type": "Feature", "properties": { "USERID": 12314, "LAYERCODE": 111996011, "LAYERNAME": "AEDステーション", "NAME": "西行政センター", "ADDRESS": "長坂1-2-2", "TEL": "046-856-3157", "FAX": null, "URL": "http:\/\/www.city.yokosuka.kanagawa.jp\/2496\/sisetu\/fc00000082.html", "INFO": "AED：１階警備室内に１台設置　開設時間　：平日8：30～21：00　土日祝日は9：00～21：00（年末年始は閉庁）", "X_BLDD": 139.62928, "Y_BLDD": 35.21837, "VIEWFLG": 1 },